stop_id,stop_name,stop_lat,stop_lon
00481,BT PANJANG TEMP BUS PK,1.383764,103.7583
01012,Hotel Grand Pacific,1.29684825487647,103.85253591654006
01013,St. Joseph's Ch,1.29770970610083,103.8532247463225
01019,Bras Basah Cplx,1.29698951191332,103.85302201172507
01029,Cosmic Insurance Bldg,1.2966729849642,103.85441422464267
01039,Nth Bridge Commercial Cplx,1.29820784139683,103.85549139837407
01059,Bugis Stn,1.30075679526626,103.85611040457583
01109,Queen St Ter,1.30358577565355,103.85650372998224
01112,Opp Bugis Junction,1.30015494414022,103.8552332285516
01113,Bugis Stn,1.30117297541547,103.8561140106393
01119,Bugis Junction,1.2996041093804,103.85512934079571
01121,Stamford Pr Sch,1.30393809691048,103.85867999243207
01129,Opp Stamford Pr Sch,1.30350269187301,103.85864530718491
01139,Parkview Sq,1.30033057855542,103.85716080665901
01211,Opp Blk 461,1.30551803523268,103.8605449516032
01219,Blk 461,1.30526598535719,103.86072019914616
01229,Bef Sultan Mque,1.30337552638813,103.85963089198265
01231,Opp Textile Ctr,1.3032499999752,103.8610830559663
01239,Sultan Plaza,1.30291236608351,103.86161817611134
01311,Lavender Stn Exit B,1.3070916463394,103.86219695240973
01319,Lavender Stn Exit A/ICA,1.30757426746418,103.86325596123476
01329,Blk 8,1.30495670239172,103.86363028484124
01339,Bef Crawford Bridge,1.30774601733202,103.8642627465441
01341,Southbank,1.30647555600578,103.86452527798744
01349,Opp Blk 4,1.30568635716829,103.86543994417883
01411,Opp St. John HQ,1.30211332865049,103.86295598167331
01419,St. John HQ,1.3020199999911,103.86326333301203
01421,Opp Golden Mile Cplx,1.30338444400173,103.86483888898641
01429,Golden Mile Cplx,1.3032136089394,103.86501584807763
01511,Opp The Gateway,1.29919826103807,103.85864518302436
01519,The Gateway,1.29907492488417,103.8589102973441
01521,Opp Plaza Parkroyal,1.30088304437602,103.86066098182194
01529,Plaza Parkroyal,1.30041667676526,103.86044115259938
01541,Bugis Stn Exit D,1.29886465442254,103.85734583628746
01549,Near Bali Lane,1.30069868861162,103.85873120467069
01559,Landmark Village Hotel,1.30168731070562,103.85752923961614
01611,Raffles Hotel,1.29529638630566,103.85539039969967
01619,Opp Raffles Hotel,1.29428694178246,103.85503809424233
01621,Opp Shaw Twrs,1.29695888888745,103.85655611109846
01629,Shaw Twrs,1.29695972219958,103.85686527780177
01631,Aft Beach Rd,1.29693614589482,103.85580555528077
01639,Bef Beach Rd,1.29738750001468,103.85557583297624
02029,Opp S'pore Cricket Club,1.28879015142476,103.85293318066766
02049,Raffles Hotel,1.29452091230981,103.85402155505173
02051,Seating Gallery,1.2895030556082,103.85903388899317
02061,The Esplanade,1.2899638888957,103.85640388886262
02089,Pan Pacific Hotel,1.29152694444975,103.8592061110504
02099,Marina Ctr Ter,1.29101661693418,103.86255772172497
02101,AFT S'PORE FLYER,1.28939197625331,103.8618029276249
02111,Esplanade Bridge,1.29095592348389,103.85453419435228
02119,Opp War Memorial Pk,1.29184407356581,103.85534334305085
02141,Suntec Twr Two,1.29576571603037,103.85933814632858
02149,Suntec Twr Three,1.29560459817725,103.85955533029184
02151,Suntec Convention Ctr,1.29317776320814,103.85784623004031
02159,Opp Suntec Convention Ctr,1.29360811227161,103.85840672828635
02161,Promenade Stn,1.29268553508737,103.86093156188176
02169,Promenade Stn Exit B,1.29333836780589,103.86070849052753
02171,Opp The Ritz-Carlton,1.29070000003898,103.86092194446034
02181,Supreme Ct,1.28947444402148,103.85098166700017
03011,Fullerton Sq,1.2855975891826,103.85333597704485
03019,OUE Bayfront,1.284245000013,103.85310805599599
03021,Prudential Twr,1.28255524603003,103.84998903789258
03031,Raffles Pl Stn Exit F,1.28207492207952,103.85086074925066
03041,Telok Ayer Stn Exit A,1.28179509394707,103.84893207391676
03059,One Raffles Quay,1.28097649556002,103.85135652579491
03071,OPP SO SOFITEL S'PORE,1.27992132484601,103.8493803167706
03111,Aft Capital Twr,1.2778259536079,103.8481011719729
03129,UIC Bldg,1.27807003532092,103.84956718123823
03151,Opp GB Bldg,1.27892124625262,103.84776234627124
03217,Opp AXA Twr,1.27552218897645,103.8479443674916
03218,Opp MAS Bldg,1.2740788888387,103.84687388890413
03222,Hub Synergy Pt,1.27397836925637,103.84489562922414
03223,Intl Plaza,1.2757033952327,103.84632468221952
03239,Shenton Way Ter,1.27464226961973,103.84756721372408
03241,Mapletree Anson,1.27456,103.84537
03331,Bef Marina Gdns Dr,1.27663307202767,103.86076808024792
03339,Aft Marina Gdns Dr,1.27498516412784,103.85950016250487
03341,Bef Gdns by the Bay,1.27959780011944,103.8643376844082
03349,Aft Gdns by the Bay,1.27965600609923,103.8647780795552
03369,Marina Barrage,1.27960772061959,103.8698744774074
03371,Gdns by the Bay,1.28066479303461,103.86626955523418
03381,The Sail,1.28162601329006,103.85306513725685
03391,Marina Bay Financial Ctr,1.28037660340352,103.85498006767988
03411,Opp Marina Sth Pier,1.27159299884076,103.86300900488229
03419,Marina Sth Pier,1.27127698470973,103.86297693157816
03421,Marina Bay Cruise Ctr,1.26694090294712,103.85964778134667
03501,Marina Bay Sands Theatre,1.28500467671367,103.8606110538643
03509,Marina Bay Sands Hotel,1.28314999997332,103.86004388891767
03511,Marina Bay Sands MICE,1.28194779470571,103.85897064872482
03519,Opp Marina Bay Sands MICE,1.28124500000125,103.85884799997385
03529,Downtown Stn,1.27939957419063,103.85278769921703
03539,Marina Bay Stn,1.2775330547661,103.85561610012866
04019,OPP BENCOOLEN STN EXIT B,1.29807216909408,103.84975607305783
04029,BEF BENCOOLEN STN EXIT A,1.29948166696821,103.85092666701239
04111,Capitol Bldg,1.2940020309036,103.85128983925452
04121,SMU,1.29618544092334,103.84958029974611
04142,Armenian Ch,1.2930982644668,103.84965994500728
04143,Stamford Ct,1.29411640848293,103.85020606905503
04149,Grand Pk City Hall,1.29276132399953,103.84983741344308
04151,Cath Of The Good Shepherd,1.29533777799211,103.85113972198121
04159,Aft Chijmes,1.29489484954945,103.85108138663934
04167,City Hall Stn Exit B,1.29250006522444,103.85145315468638
04168,Aft City Hall Stn Exit B,1.29208221483052,103.85125994680256
04179,AFT BRAS BASAH STN EXIT A,1.29647916306741,103.85147164487202
04211,Clarke Quay,1.29043611099357,103.84712444398055
04219,Opp Clarke Quay,1.29096802754795,103.84686777836987
04222,Clarke Quay Stn Exit E,1.28898962180798,103.84708976365569
04223,Old Hill St Police Stn,1.29084476137495,103.84857901022669
04229,High St Ctr,1.29044830830726,103.84875123545265
04239,Clarke Quay Stn,1.28882717929599,103.8474938118651
04249,Opp The Treasury,1.29043039362749,103.85026216508201
04251,Opp High St Ctr,1.28973833297563,103.84888472198024
04311,Aft River Valley Rd,1.29464575337351,103.8439214229312
04321,Shell HSE,1.2921400077773,103.84303646191061
04329,Opp Shell HSE,1.29197057108024,103.84328384973516
04331,BEF FORT CANNING STN,1.29183939431601,103.84504089382705
04339,FORT CANNING STN EXIT B,1.29221099996741,103.84500500002959
05009,Opp OCBC Ctr,1.28592554082489,103.84923642965272
05012,Pearl's Ctr,1.28154583300728,103.84087722199499
05013,People's Pk Cplx,1.28406979945936,103.84299874303983
05019,Opp Pearl's Ctr,1.28118388885484,103.84105000000471
05022,People's Pk Ctr,1.28571089865595,103.84437203405348
05023,Opp Hong Lim Pk,1.28692928357498,103.84540375642477
05029,Boat Quay,1.28724656561704,103.84833343750249
05039,New Bridge Ctr,1.28293819129834,103.84254276754574
05049,Chinatown Pt,1.28531114761754,103.84455070696784
05059,Hong Lim Pk,1.28676420118491,103.84575036447065
05069,Outram Pk Stn Exit H,1.28027629959632,103.84029791443083
05129,Hong Lim Pk,1.28601166699569,103.84634666701143
05131,Opp Hong Lim Cplx,1.28398513155185,103.84527387289731
05189,Opp Sri Mariamman Tp,1.2820913960391,103.84528061446953
05199,Opp Hong Lim Cplx,1.28447078699184,103.84667079234325
05239,Bef The Pinnacle@Duxton,1.27836884877795,103.8413465022973
05241,Opp Blk 333,1.28079364568802,103.84220112325953
05259,Aft Kreta Ayer Rd,1.279157173483,103.84200086940434
05269,Maxwell Rd FC,1.28112262018573,103.8447242490848
05271,Opp Fairfield Meth Ch,1.27975329525167,103.84382212419122
05319,OCBC Ctr,1.28449667301849,103.84908685850282
05411,Tg Pagar Plaza,1.27519165673078,103.84309190393883
05419,The Amara,1.27470669455555,103.84318683838887
05421,Aft Craig Rd,1.27777470568529,103.84346347289251
05429,Bef Craig Rd,1.27769413050075,103.84370654372525
05519,Opp Maritime Hse,1.27553472200739,103.84112694400494
05521,Maritime Hse,1.27676861098316,103.84059222200347
05629,Opp Southpoint,1.27329192032102,103.84192909343133
05631,Blk 16,1.27346055934188,103.84034718190608
05641,Customs Port Br HQ,1.27272393115133,103.84140618785226
05649,Opp Customs Port Br HQ,1.2723842122117,103.84093912218094
05651,Opp Fuji Xerox Twrs,1.27324242161317,103.84305085232333
06011,Opp Outram Pk Stn,1.28165999996967,103.83801388886192
06029,Outram Pk Stn,1.28177041153491,103.8383828488293
06031,Opp Blk 13,1.28607055552165,103.83879166662209
06039,Blk 8,1.28705997883119,103.83962555611693
06049,BEF OUTRAM FLYOVER,1.28474856880259,103.83517705055233
06051,Blk 55,1.28475980959972,103.83405671725487
06069,Aft Furama RiverFront,1.28623157720487,103.83496162445665
06071,Blk 2B,1.28685859481289,103.83360028266564
06081,Blk 94,1.28837086415387,103.83349881780524
06129,Grand Copthorne Hotel,1.29078162052352,103.83440916705554
06131,The Boys' Brigade HQ,1.29152472200833,103.83222750001508
06141,Holiday Inn Atrium,1.28963300933974,103.83381241921823
06149,Opp Holiday Inn Atrium,1.28984045728104,103.83411526676929
06151,Hotel Miramar,1.28870976841461,103.83737276969174
06159,Opp Hotel Miramar,1.28909385421188,103.8368794036018
06161,Blk 2,1.28901705678419,103.83994286096711
06169,River Pl Condo,1.28937078931125,103.83998944937589
06171,Opp State Ct,1.2860773006121,103.84244788580838
06189,Ctrl Sq,1.28779136477868,103.84329428089559
07011,Peace Ctr,1.30099699058522,103.8498101874305
07021,Selegie Ctr,1.30324521574524,103.84995776766847
07031,Tekka Ctr,1.30572083298412,103.85120583303191
07111,Broadway Hotel,1.30879366465919,103.8531751994068
07211,Sri Srinivasa Perumal Tp,1.31313747728456,103.8563561439714
07221,Sri Vadapathira K Tp,1.31503278656775,103.85788270432104
07231,Bef Tai Hoe Hotel,1.30964820661492,103.85735391381444
07241,Bef S'Goon Rd,1.31557142083242,103.85900616698896
07249,Aft Kempas Rd,1.31538504412508,103.85946769695234
07319,Aft Allenby Rd,1.31038833299803,103.85870666696984
07329,Hoa Nam Bldg,1.31284472583438,103.85989088288474
07331,Aft King George's Ave,1.30824994545395,103.8589096071918
07351,ARC 380,1.31351833300073,103.86054527803076
07359,OPP ARC 380,1.31368253065979,103.86071451807119
07361,Bef Kallang Bahru,1.31167636068313,103.86189483728585
07369,Aft Kallang Bahru,1.31140805601851,103.86237888899062
07371,Aft Kallang Rd,1.30950750000455,103.86350138902452
07379,Bef Kallang Rd,1.31017336740849,103.86338225534827
07419,Opp Veerasamy Rd,1.30653024120879,103.8561630249311
07517,IBIS S'PORE ON BENCOOLEN,1.30138184852118,103.85252564651103
07518,OPP NAFA CAMPUS 3,1.30097493989394,103.8521798624137
07529,JLN BESAR STN EXIT A,1.30431906266143,103.85501564257024
07531,Rochor Stn,1.30365644370093,103.8525732326128
07539,Opp Rochor Stn,1.30461300741211,103.8520009720951
07551,Fu Lu Shou Cplx,1.30171975809706,103.8546132267025
07561,Bef Waterloo St,1.29945446471936,103.85267983857253
07569,Aft Waterloo St,1.29949531348401,103.85301395376233
07571,SUNSHINE PLAZA,1.30063444632288,103.85114009314601
07589,Opp Rochor Ctr,1.30320609782822,103.85549999983388
08011,Opp Haw Par Glass Twr,1.29706985017362,103.84361028672502
08019,Aft Haw Par Glass Twr,1.29624633745957,103.84407009228418
08031,Dhoby Ghaut Stn,1.29831153783592,103.8452569595532
08041,YMCA,1.29811014243867,103.84780636909545
08057,Dhoby Ghaut Stn,1.29930997279734,103.84529021429745
08058,Aft Dhoby Ghaut Stn,1.2989583431631,103.84654115271174
08069,BENCOOLEN STN EXIT B,1.29821382250893,103.84936128375956
08079,Sch of the Arts,1.29921444445586,103.84910329217985
08111,Winsland Hse,1.29986928715834,103.84093746088925
08121,Somerset Stn,1.30027569326586,103.83877618459663
08137,Orchard Plaza,1.30073968408393,103.84100500816844
08138,Concorde Hotel S'pore,1.3004785730821,103.84184700607595
09011,Opp Ngee Ann City,1.30211335092372,103.83431672376756
09022,Bef Orchard Stn Exit B,1.30252834773643,103.83239784275958
09023,Opp Orchard Stn/ION,1.30323727330942,103.83254180023424
09037,Opp Mandarin Orchard,1.3023400420296,103.83701253388183
09038,Opp Somerset Stn,1.30154262450563,103.83852481842337
09047,Orchard Stn/Tang Plaza,1.30446065207443,103.83294467208566
09048,Orchard Stn/Lucky Plaza,1.30386684425114,103.83413070051408
09059,Natl Youth Council,1.30044251755834,103.83623804216019
09111,Opp Four Seasons Hotel,1.30453752623147,103.82914529614989
09121,Bef Tomlinson Rd,1.30397379238249,103.82699645124522
09131,Grange Residences,1.30391999998489,103.82333805603095
09139,Aft Cuscaden Rd,1.30369021410801,103.82364007997654
09141,British Council,1.30543500002797,103.82177666702269
09149,Opp British Council,1.30608981381948,103.8212215023314
09159,Aft Tomlinson Rd,1.30602637557418,103.82568042620605
09169,Delfi Orchard,1.3070135326348,103.82835507326037
09179,Royal Thai Embassy,1.30587966240898,103.83049004618626
09191,The Regent S'pore,1.30488653118311,103.82549755834486
09212,Royal Plaza On Scotts,1.30702238421536,103.83265522662566
09213,Thong Teck Bldg,1.30783805600034,103.83305083303023
09219,Far East Plaza,1.30731999685228,103.83316088291699
10009,Bt Merah Int,1.28210155945393,103.81722480263163
10011,BEF NEIL RD,1.2777380589964,103.83749709165197
10017,Aft Hosp Dr,1.27832046633393,103.83762574759974
10018,Outram Pk Stn Exit F/SGH,1.27900819665099,103.83860360621959
10021,Blk 3,1.27744837946643,103.83838894560753
10041,BEF KAMPONG BAHRU TER,1.27605834770353,103.83519065305671
10049,OPP KAMPONG BAHRU TER,1.27623302424393,103.83483786772155
10051,Blk 149,1.2774116353284,103.83214410914843
10059,Opp Blk 149,1.27739664167497,103.83275178077875
10061,Blk 140,1.27860472196885,103.82948638898173
10069,Opp Blk 140,1.27855472196877,103.83008250001669
10071,Blk 111,1.28045309423663,103.82638920754815
10079,Blk 201,1.2803950142786,103.82708906887606
10081,Opp Blk 120,1.2822783541702,103.82241744338572
10089,Blk 119,1.28292332245689,103.82165660905856
10091,Bt Merah Town Ctr,1.28394108576437,103.81783962251122
10099,Opp Bt Merah Town Ctr,1.28420923932422,103.81765723225827
10101,OPP BT MERAH SEC SCH,1.28502568134889,103.81374366011399
10109,BT MERAH SEC SCH,1.28531403163162,103.81365537642607
10111,Opp Blk 28,1.28592835098556,103.80935410958449
10119,Opp Pacific Tech Ctr,1.28598009010704,103.81122515087834
10121,Blk 126 CP,1.282626111,103.8288419
10129,Blk 121,1.28231999999009,103.8285719444802
10131,Opp Blk 2,1.28619141382394,103.80686549059318
10139,Blk 1,1.28635135443034,103.8081000223439
10141,Blk 18,1.28583847140468,103.83238179897589
10149,Blk 1,1.28606797463712,103.83283384311112
10151,Ctrl Green Condo,1.28572048365401,103.8285292287095
10161,Opp Tiong Bahru Plaza,1.28593135445772,103.82668969231534
10169,Tiong Bahru Plaza,1.28599961406266,103.82748123930962
10171,Opp Tiong Bahru Pk,1.28736808047078,103.82346004890803
10179,Tiong Bahru Pk,1.28722333302937,103.82395833301354
10181,BEF AR-RABITAH MQUE,1.28848771148124,103.8209448467392
10189,Blk 104A CP,1.28858805222806,103.82183192865197
10191,Blk 78,1.28860026020096,103.81903121724014
10199,Delta Swim Cplx,1.28875723330649,103.81936618662205
10201,Opp Redhill Stn,1.28928144532567,103.81662854691157
10209,Redhill Stn,1.28954631749853,103.81672885450702
10211,Porsche Ctr S'pore,1.29075499997303,103.81144166700754
10219,Opp Motor Image,1.29089526651849,103.81191424883255
10221,Ganges Ctr,1.29032906602668,103.83111793441608
10229,Opp Harvest Mans,1.29052137840164,103.83178189529583
10231,Blk 51 CP,1.290468056,103.8278819
10239,Blk 79,1.2906,103.82865
10241,Gan Eng Seng Sec Sch,1.2906166672167,103.82362326803131
10249,Opp Gan Eng Seng Sec Sch,1.29088138899671,103.82407777797806
10261,Delta Sports Hall,1.29090335842692,103.82047232884216
10269,Opp Delta Sports Hall,1.29125331927458,103.82057583280772
10271,Opp Tanglin View,1.29115999997607,103.81757666701353
10279,Tanglin View,1.29151373164978,103.81757660887743
10281,SIS Bldg,1.29153833298318,103.81445166697797
10289,Opp SIS Bldg,1.2918699745378,103.81440639448375
10291,Bef Dawson Rd,1.29215855273858,103.81065866068086
10299,Aft Dawson Rd,1.29233498466278,103.81146486767658
10321,Aft Margaret Dr,1.29428332949691,103.81587839882768
10329,Crescent Girls' Sch,1.29364671283262,103.81597460107542
10331,Bef Bt Merah Ctrl,1.28136306628839,103.81834423228645
10339,Aft Bt Merah Ctrl,1.28115835063292,103.81857250844851
10341,Opp Blk 116,1.28484639603431,103.82059301467888
10349,Blk 116,1.2849833405097,103.82104149555396
10351,Bef Tiong Bahru Rd,1.28675501760897,103.82204990181914
10359,Aft Tiong Bahru Rd,1.28723833324362,103.82259298997768
10361,Cendex Ctr,1.28038092060065,103.82353025808791
10369,Opp Cendex Ctr,1.28037471151153,103.82387343933006
10371,Blk 129,1.28365072319387,103.824502653383
10379,Blk 25B,1.28373603376667,103.82489520929732
10381,Opp Blk 48,1.28906972186602,103.82559411728036
10389,Blk 48,1.28875832991208,103.82573455047122
10391,Opp Melati Blk 2,1.27619610041717,103.83111005682466
10399,Melati Blk 2,1.27588166292683,103.83019454205221
10401,Shriro Hse,1.28816729863,103.81167850401884
10409,Blk 50,1.28788221830638,103.81099317775703
10411,Opp Blk 53,1.28912979528004,103.81280840030111
10419,Blk 52,1.28842024220748,103.81257549749508
10421,Blk 63B,1.2889706156154,103.81503540991777
10429,Blk 54,1.2892779060127,103.81404805422201
10431,ENABLING VILLAGE,1.28708384358883,103.81399869917512
10439,OPP ENABLING VILLAGE,1.28747956947939,103.81418936580334
10441,Opp Blk 44,1.28656898930199,103.8116061687213
10449,Blk 44,1.28666552495266,103.81195378046979
10451,Opp Blk 71,1.28762380319765,103.8172559639682
10459,Blk 72,1.28754723360397,103.81639920301684
10461,Aft Margaret Dr,1.29680597432594,103.81169140516062
10469,Bef Margaret Dr,1.29668400003303,103.81216918970023
10471,Bef Tanglin Rd,1.29679993078344,103.81468220659576
10479,Aft Tanglin Rd,1.29668100002552,103.81547381025995
10481,Opp Blk 73,1.28784195484767,103.81797160113335
10489,Blk 73,1.28811638897142,103.81778388900163
10499,KAMPONG BAHRU TER,1.27585400417691,103.83401000002084
10501,Blk 104,1.28105845355429,103.82528065411316
10519,Blk 4,1.29172303079906,103.82610949356565
10599,Opp Blk 36,1.28883435010664,103.80924997344987
10651,Blk 161,1.28329993019059,103.81547665017668
10659,Blk 1003,1.28362333298689,103.81472833301791
11009,Ghim Moh Ter,1.3110673548964,103.78932237623975
11019,Opp OG Fty,1.28679632523156,103.80565677295323
11021,Aft Queenstown NPC HQ,1.28941805603102,103.80228694398484
11029,Blk 166,1.29013472201419,103.80202111098815
11031,Opp Queen's Cl,1.29119666696879,103.80045500000118
11039,Blk 19,1.29245762862665,103.79998683928974
11041,Aft C'wealth Dr,1.29624499998226,103.79952333299494
11049,Opp Blessed Sacrament Ch,1.2954609366563,103.79952549937242
11051,Opp Queenstown Polyclinic,1.29872166703909,103.8002979755481
11059,Queenstown Polyclinic,1.29882892782979,103.80097389222824
11061,Opp Queensway Sec Sch,1.30265777802206,103.80118694402536
11069,Queensway Sec Sch,1.30236853162324,103.80161762237655
11071,Blk 97,1.30621305601609,103.80170944396954
11079,Opp Blk 95,1.305441389003,103.80185250000659
11081,Viz Holland,1.30851972202313,103.80258027799627
11089,Opp Holland Hill Lodge,1.30946135492693,103.80334087354639
11091,Tulip Gdn,1.31219444050072,103.80367378215983
11099,Opp Tulip Gdn,1.31305333300118,103.80437666697586
11101,Farrer Rd Mkt,1.31614971080385,103.80596012189226
11109,Spanish Village,1.31552472199926,103.80574305602846
11111,Farrer Rd Stn Exit B,1.31780157259006,103.80771866952543
11119,Farrer Rd Stn Exit A,1.31747833490912,103.80785606728587
11131,Queens Condo,1.2928849988829,103.80706694417339
11139,Blk 53A CP,1.2931986108138,103.80744694841283
11141,Queenstown Stn Exit A/D,1.29463705145492,103.80582510668431
11149,Queenstown Stn Exit B/C,1.29506407111991,103.80596280094791
11151,Blk 42,1.29863585845076,103.80247592925552
11159,Aft Ch Of Our Saviour,1.29800440816386,103.80362656855579
11161,C'Wealth Stn Exit A/D,1.30213305598263,103.79839083302141
11169,C'Wealth Stn Exit B/C,1.30270500001823,103.79838166697326
11171,Opp Blk 7B,1.30535666699303,103.79479722196947
11179,Blk 8,1.30627521395682,103.79427940117534
11181,Opp Blk 43,1.30722333300814,103.79227638896938
11189,Blk 43,1.30740138898924,103.79254222202354
11191,Buona Vista Stn,1.30801640815091,103.7883731546267
11199,Blk 15,1.30837970735444,103.78843145303215
11201,CSC Dempsey Clubhse,1.30692642897557,103.81186453577433
11209,Opp Peirce Rd,1.30817280849852,103.81038349817638
11211,Aft Peirce Rd,1.30838779885113,103.80939522851014
11219,Great Eastern Mans,1.30988506093033,103.80716407830104
11221,Lien Twrs,1.31002225322358,103.80544413357042
11229,Les Jardins De Holland,1.31060065879064,103.80522542227166
11231,Aft Estoril Mans,1.31115316310297,103.80119919777994
11239,Fairlodge,1.31152857401616,103.80165517330278
11259,Opp Blk 21,1.31119887945564,103.79274002213417
11261,Holland Village,1.31223168432152,103.79444621838488
11269,Opp Holland Village,1.31256112590195,103.79453796697418
11271,Aft East Sussex Lane,1.31473444398294,103.79008416699845
11279,Aft Coronation Rd West,1.31466878886978,103.79069259768109
11281,Aft Tan Boon Chong Ave,1.31622694399746,103.78852194399074
11289,Opp Tan Boon Chong Ave,1.31618891387774,103.78904342517946
11291,Cold Storage Jelita,1.31792777802094,103.78592333300938
11299,Opp Cold Storage Jelita,1.31826975603165,103.78558843680226
11301,Hse No. 578,1.31803972093441,103.78790067716272
11309,Hse No. 589,1.31862443850443,103.78842993526158
11311,Hse No. 532,1.31989638898836,103.78918694402276
11319,Opp Hse No. 516,1.3203063798654,103.78959970624805
11321,Opp Regent Villa,1.32123138902898,103.79010361098513
11329,Regent Villa,1.32236139685053,103.7909809400838
11331,Opp Dynasty Gdn II,1.32320918827361,103.79144668575621
11339,Dynasty Lodge,1.32398638897489,103.79204722198944
11341,Garlick Ville,1.32551506183496,103.79282790894261
11349,Opp Garlick Ville,1.32566611098306,103.79307388903305
11351,Blk 13,1.30934571218561,103.78945112775229
11359,Opp Blk 13,1.30931022636473,103.78968608347117
11361,Buona Vista Stn Exit C,1.30649698638726,103.79058123542397
11369,Buona Vista Stn Exit D,1.3063259638605,103.79084827741467
11379,Buona Vista Ter,1.30917002463976,103.79236323128613
11381,Blk 10A,1.30841137865065,103.79328294102335
11389,Blk 46,1.30906501014268,103.7929321687807
11401,Holland V Stn Exit C,1.30906722197973,103.79507444402137
11409,Blk 9,1.3076441670056,103.79432583301961
11419,Holland V Stn Exit A,1.31102981378085,103.79604399202725
11429,Opp Blk 115B,1.30454000002017,103.7983633329984
11439,Blk 92,1.30606472198412,103.80029777801455
11441,Blk 58,1.29780416697573,103.79754055603178
11449,Blk 37B,1.29840527801842,103.79760333302292
11451,Blk 72,1.30034972200468,103.79707277801477
11459,Blk 50,1.30097055597804,103.7968519439962
11469,Queensway Sec Sch,1.30113503392421,103.80188584326886
11471,Opp The Fisherman Ch,1.29951892595663,103.80315156606572
11479,The Fisherman Ch,1.29938075130292,103.80371985837914
11481,Queenstown Lib,1.29811518922625,103.8060054035445
11489,Opp Queenstown Lib,1.29845351507922,103.80499720571189
11491,Opp Queenstown Pr Sch,1.29710202847016,103.8076364994003
11499,Queenstown Pr Sch,1.29685053610951,103.80788663334461
11511,Alexandra Hosp,1.2859468736223,103.80251884462385
11519,Opp Queensway Shop Ctr,1.28665742231261,103.80334129425303
11521,Anchorpoint,1.2885710102662,103.80543003047167
11529,Bef IKEA Ind Bldg,1.28903120647732,103.8060909305284
11531,Opp Lea Hin Hardware Fty,1.29108833302538,103.80753083302794
11539,Lea Hin Hardware Fty,1.29117049549107,103.80786180498694
11541,Opp Queens,1.29235984013148,103.80578500139798
11551,Tiong Ghee Tp,1.29126703051517,103.8040959835246
11561,Blk 166,1.29107396045212,103.80247592924283
11579,Blk 158,1.29256489056942,103.80303321252237
11589,Blk 157,1.292991881006,103.80400524995773
11599,Blk 153,1.29420805600708,103.80314888900556
11609,Blk 163,1.29188972202709,103.80212194401808
12021,Bef Moonbeam Wk,1.31907638897016,103.78243055601493
12029,Opp Moonbeam Wk,1.31958369390988,103.7824392109149
12031,Pandan Valley Condo,1.3208008510991,103.7796285552172
12039,Opp Pandan Valley Condo,1.32104526183447,103.78018998386835
12041,Aft Pandan Valley,1.32049172685895,103.77653442120544
12049,Opp Pandan Valley,1.32091131971837,103.77655888991401
12051,Pine Gr Condo,1.3204289505949,103.7750613105408
12059,Opp Pine Gr Condo,1.32072731097778,103.77515897833835
12061,Blk 109,1.32178500189496,103.77087339859139
12069,Opp Blk 109A,1.321433056,103.7710419
12071,Blk 116,1.32402249998323,103.77219388896603
12079,Opp Blk 116,1.32383187575187,103.77263094375739
12081,Maju Camp,1.326468056,103.77543
12089,Opp Maju Camp,1.326261111,103.7757089
12091,SIM HQ,1.32918315486756,103.7771471166854
12099,Opp SIM HQ,1.327838056,103.7767036
12101,Ngee Ann Poly,1.33243896358504,103.77768506316727
12109,Opp Ngee Ann Poly,1.330819444,103.7780086
12111,Bef Clementi Rd,1.3191179107649,103.77222980786665
12119,Police KINS Trg Camp,1.31964598192789,103.77279266281438
12121,Blk 7,1.31164833301814,103.7871516670319
12129,Blk 3,1.31182111096862,103.78732611099163
12131,Aft Grove Ave,1.3141594439742,103.785061666981
12139,Aft Mt Sinai Lane,1.31453185933289,103.78504157068625
12141,Opp Henry Pk,1.31574389841394,103.78239154819083
12149,Henry Pk,1.31576900455367,103.78266099158458
12151,Bef Moonbeam Terr,1.31865064467378,103.78127574919664
12169,Pandan Valley,1.31916549240365,103.77724170687915
12179,Montview,1.31679504687757,103.7769949436126
12189,Bef Mt Sinai Dr,1.31642693680141,103.78022402243116
12199,Opp Village Twr,1.31547998901343,103.77820622498255
12201,Logishub @ Clementi,1.32670826856501,103.76399509585458
12209,Opp Logishub @ Clementi,1.32653202760922,103.76429968220569
12211,Bef Mt Sinai Wk,1.31721336095462,103.78070712088581
13011,Opp S'pore Botanic Gdns,1.30634849184404,103.81983822614549
13019,S'pore Botanic Gdns,1.3067380217198,103.82013079894885
13021,Aft Min Of Foreign Affairs,1.30633972996805,103.81430670816292
13029,Bef Tyersall Ave,1.30671783282361,103.8145185880206
13031,Opp Chatsworth Rd,1.29912972200223,103.81707388901162
13039,Bef Chatsworth Rd,1.29981572699945,103.81744265557978
13041,Aft Rochalie Dr,1.30242834318416,103.81967634723284
13049,Bef Rochalie Dr,1.30261671321463,103.82045069624506
13051,Opp Valley Pt,1.29334305906356,103.8263656209055
13059,Valley Pt,1.29328273601932,103.82663492676832
13062,STELLAR RV,1.2948495492402,103.82852554324063
13063,RV SUITES,1.29544829339552,103.82954172608696
13069,RV RESIDENCES,1.29488000002792,103.82880805602646
13071,Opp ERC Inst,1.29636199316259,103.8322512944371
13079,Aft ERC Inst,1.29616972198544,103.83255861099337
13081,St. Thomas Wk,1.2959113890106,103.83624277798825
13089,Opp St. Thomas Wk,1.29575111096804,103.83604111103381
13091,AFT KIM YAM RD,1.29593138900491,103.83937805601917
13099,BEF KIM YAM RD,1.29578024244395,103.83961272081199
13101,Opp Mohd Sultan Rd,1.29414162678811,103.84231209757696
13109,UE Sq,1.29350944398488,103.84272416702719
13119,Opp Great World City,1.29362677394379,103.83283853530904
13121,Opp Great World City,1.29409221679274,103.8308377640795
13139,The Trillium,1.2950426189642,103.83205533028763
13141,Aft Zion Full Gospel Ch,1.29745598928819,103.82996320724997
13159,Bef Zion Full Gospel Ch,1.29796011528522,103.83053183555204
13169,Grange 80 Condo,1.29910305180416,103.82839289158527
13171,Gramercy Pk,1.29906809120339,103.82650703485064
13179,Cliveden At Grange,1.29925749997453,103.82665250000115
13181,Aft One Tree Hill,1.30023223661153,103.82403473005562
13189,Bef One Tree Hill,1.30038166697497,103.82414749997376
13191,Bef Orchard Blvd,1.30266053145965,103.82987799248593
13199,Aft Orchard Blvd,1.30229926867508,103.82999232505492
13201,British High Comm,1.30453622259471,103.82209559895128
13209,Opp British High Comm,1.3040310710651,103.82205605505206
13211,Aft Unity St,1.29241699362559,103.841095990069
14009,HarbourFront Int,1.26703502614245,103.81901469907409
14011,Bef Mt Faber Lodge,1.26795444401606,103.8255261109799
14019,Opp Mt Faber Lodge,1.2684889249437,103.82571717446542
14021,The Pearl @ Mt Faber,1.27132972198996,103.82478361101728
14029,Blk 105,1.27247333301883,103.82418777803016
14031,St. Theresa's Convent,1.27624277802151,103.82306027800865
14039,Opp St. Theresa's Convent,1.27663637861466,103.82345826768822
14041,Blk 54,1.2732727805917,103.81247079301698
14049,Opp Blk 55,1.27324166755337,103.81304231999674
14051,Aft Telok Blangah Hts,1.27581500000367,103.81507555599188
14059,Bef Telok Blangah Hts,1.27537485139506,103.81514365492288
14061,Opp Former Railway Stn,1.27231269789239,103.83862035734883
14069,Former Railway Stn,1.27261333297575,103.83694861102117
14071,Keppel Workshop,1.27220342411953,103.8339025862589
14081,Tg Pagar DP Blk F5,1.27067760623796,103.83061367871179
14089,Opp Tg Pagar DP Blk F5,1.27046005041763,103.829792773326
14101,Opp Keppel DP Blk 517,1.26837500002503,103.82825805600972
14109,Keppel DP Blk 517,1.26804601553507,103.82722490505579
14119,Opp VivoCity,1.26592360897281,103.8222827803663
14121,Harbourfront Stn Exit B,1.26591350024271,103.81925660621779
14129,Harbourfront Stn Exit A,1.26607869101924,103.81977877391114
14131,Caribbean at Keppel Bay,1.26740130257465,103.81675441150337
14139,Bef Seah Im Rd,1.2686352773503,103.81546952380809
14141,VivoCity,1.26552421466644,103.82211326846237
14151,Opp Chr Community Chapel,1.26964765905364,103.8129359412343
14159,Bef Chr Community Chapel,1.26994046445496,103.81315419081787
14161,Telok Blangah Stn,1.27075866533548,103.81009913005327
14169,Opp Telok Blangah Stn,1.27118550385957,103.80941810434497
14171,Opp Yeo's Bldg,1.27145959833005,103.80654857059398
14179,Yeo's Bldg,1.27188454577735,103.80630000533797
14189,Aft Alexandra Rd,1.27269303340787,103.80398363214624
14191,Blk 105 CP,1.28121833300943,103.81211444400743
14199,Blk 118,1.28131676735406,103.81275056370772
14201,Blk 110,1.28167307267242,103.80914683892263
14209,Aft Hewlett Packard,1.28176397706369,103.80958869712056
14211,ISS Intl Sch,1.28161168409316,103.80521877469815
14219,Opp Blk 114,1.28218647936578,103.80684961252827
14221,Opp St. Teresa's Ch,1.27359332247784,103.82893371728431
14229,St. Teresa's Ch,1.27370670186653,103.82857888915174
14231,Keppel DP Blk 519,1.27100999999332,103.82667222202473
14239,Opp Keppel DP Blk 519,1.27178138152481,103.8271423936315
14241,Opp Blk 1,1.27914353103301,103.8168725087535
14249,Blk 1,1.27947405747082,103.81732991211003
14259,Blk 11,1.27784501068205,103.81865821941
14269,Blk 10,1.27758480623244,103.81999451121168
14271,Al-Amin Mque,1.27568194286532,103.81914854048932
14279,Blk 25,1.27591552267791,103.81920892602811
14281,Opp Blk 11,1.27699671573899,103.81804377490617
14291,Blk 27,1.27468440821038,103.82132649422054
14299,Opp Blk 27,1.27488820445716,103.82127132943862
14309,Blk 41,1.27128899958763,103.82302593897191
14319,Blk 28,1.27340685178245,103.82071832142381
14329,Blk 67,1.27434961469084,103.8094536607413
14331,Aft Telok Blangah St 32,1.27694611110347,103.8110680555484
14339,Bef Telok Blangah St 32,1.276660654539,103.81124504785828
14341,Opp Blk 59,1.2759338888633,103.81347388887318
14349,Blk 59,1.27579029839825,103.81339813671549
14351,Aft Blk 48,1.27275000000424,103.81036111111034
14359,Blk 50,1.27289055599998,103.81035027797056
14369,The Interlace,1.28153635758335,103.80365927155157
14379,Blk 40,1.27243833303297,103.82379361102515
14381,Blk 109,1.27413014152159,103.82554290547176
14389,Opp Blk 109,1.27428160509375,103.82500895193466
14391,Opp Blk 85,1.27790999999895,103.80858611110148
14399,Blk 85,1.27763662023223,103.80858552939208
14471,Blk 114,1.28201169102423,103.80664978771298
14489,Blk 36 Mkt/FC,1.2721852066614,103.82170108549552
14491,Opp Telok Blangah Mkt/FC,1.27278805556375,103.8079488888896
14499,Telok Blangah Mkt/FC,1.27291305557456,103.8078211111249
14501,OPP BLK 91A,1.277055,103.8065181
14509,BLK 92B,1.275651111,103.8068061
14519,Resorts World Sentosa,1.25352193438281,103.82570322127442
14521,Merlion Plaza,1.256432,103.820911
14529,Opp Merlion Plaza,1.253226,103.821217
14539,Beach Station Bus Terminal,1.251427,103.818545
15041,Aft PSA Bldg,1.27455320898942,103.80185648483362
15049,Bef PSA Bldg,1.274590541032,103.80216344738955
15051,Alexandra Pt,1.27718388886974,103.80248500000464
15059,Opp Alexandra Pt,1.27686194443878,103.80270111113056
15071,Opp Lor Sarhad,1.28142472197061,103.78701416697068
15079,Aft Lor Sarhad,1.280779444,103.7868256
15091,Opp Natl Leadership Inst,1.28290732015735,103.78781105381566
15099,Natl Leadership Inst,1.28305620100972,103.78789349372825
15101,Opp LP 31,1.28617611097876,103.78562083299963
15109,LP 30,1.28591970870508,103.78581066082835
15111,Sci Pk 2/The Galen,1.28676277798099,103.78484166701072
15119,Opp Sci Pk 2/The Galen,1.28703802671813,103.78501111787651
15121,Sci Pk 2/The Gemini,1.2889414210404,103.78373044277906
15129,Opp Sci Pk 2/The Gemini,1.28916467783169,103.78401870729115
15131,Kent Ridge Stn,1.29254343742409,103.78448903561744
15139,Kent Ridge Stn Exit B,1.29241000003008,103.7845849999835
15141,Labrador Pk Stn,1.27275860463579,103.80095947823813
15149,Labrador Pk Stn/PSA Bldg,1.27341871854745,103.80055546758587
15151,Bayanihan Ctr,1.27389192906939,103.79822208982421
15159,Mapletree Business City,1.27426303773784,103.79839350407595
15161,Pasir Panjang Ctr,1.27443806198132,103.79666055940478
15169,Harbourside Ind Bldg 2,1.27481499269165,103.79673994290195
15181,PSB S'pore,1.29108496444522,103.78541356072027
15189,DNV Technology Ctr,1.29079779477822,103.78550255759306
15191,Pasir Panjang Stn/Fc,1.27581227029734,103.79263571257981
15199,Opp Currency Hse,1.27604240853686,103.79318399639808
15201,Aft Pasir Panjang Stn,1.27680819120105,103.78970861437152
15209,Bef Pasir Panjang Stn,1.27706561928684,103.79023432729963
15211,Opp Pasir View Pk,1.27792442096507,103.78642808592167
15219,Pasir View Pk,1.27818114088895,103.78701031206879
15221,Aft Sth Buona Vista Rd,1.28004889012663,103.78531823285157
15229,Bef Sth Buona Vista Rd,1.27937638961898,103.78572727156029
16009,Kent Ridge Ter,1.29425341056334,103.76988323197696
16011,Opp Haw Par Villa Stn,1.28277766355314,103.78186930413443
16019,Haw Par Villa Stn,1.28278078585184,103.78217614858187
16021,Opp Gloria Man,1.28625793147796,103.77981027693801
16029,Gloria Man,1.28608472200879,103.78022138902949
16031,Opp S'pore Science Pk II,1.28800629048399,103.77846479413628
16039,S'pore Science Pk II,1.28799020188116,103.77872029260048
16041,OPP LUXE VILLE,1.28915398566994,103.77689838408504
16049,WHITEHAVEN,1.28913789650054,103.77738654614421
16051,The Crystal Tabernacle Ch,1.28985118336786,103.77490282061994
16059,Jamiyah Halfway Hse,1.28967266173408,103.77594136139503
16061,Opp Heng Mui Keng Terr,1.29046257201356,103.77356171611027
16069,Heng Mui Keng Terr,1.29082972200391,103.7731166669843
16071,Opp Pasir Panjang PO,1.29128369274019,103.77109438530917
16079,Bef Pasir Panjang PO,1.29138264862382,103.77129836184207
16081,Aft Palm Green Condo,1.29195777797363,103.76866138900287
16089,Aft Clementi Rd,1.29201138346787,103.76908420716119
16091,Opp SIT Dover,1.29939666697351,103.7792311110139
16099,SIT Dover,1.30061249997689,103.77815138886747
16101,Inst Of Micro-Electronics,1.28923831874246,103.77969239279669
16109,The Alpha,1.28911169277414,103.77950843257454
16111,Aries,1.28700981956328,103.7828311158184
16119,Teletech Pk,1.28697650703193,103.78260551222012
16121,Galen,1.28651130049582,103.78345136824991
16131,Opp Kent Ridge Ter,1.29487639088562,103.76935201010454
16139,Bef Kent Ridge Ter,1.29537944399618,103.76974861100446
16141,Tentera Diraja Mque,1.29786833526113,103.76959523650599
16149,NUS Fac Of Architecture,1.29781833402646,103.76994027003138
16151,The Japanese Pr Sch,1.30076138899694,103.76993555602371
16159,NUS Fac Of Engrg,1.30060333385651,103.77017032679849
16161,Nus Museums,1.30107500001488,103.77369416698464
16169,NUS Raffles Hall,1.30098333297992,103.77270416701658
16171,Yusof Ishak Hse,1.29890150201437,103.77438231319462
16179,Opp Yusof Ishak Hse,1.29898164227099,103.7741773272528
16181,Ctrl Lib,1.29656572408064,103.77254247664239
16189,Computer Ctr,1.29736100001827,103.77284799997702
16191,Opp NUS Fac Of Architect,1.29614307417349,103.7703702141818
16199,NUS Fac Of Design & Env,1.29639303583424,103.77072917887465
16201,Barossa Gdns,1.281298611,103.7841069
16209,HORIZON RESIDENCES,1.28158795339781,103.7840106664928
16211,Wharves Bldg,1.27941861098854,103.78357583299086
16219,Opp Wharves Bldg,1.28015833301245,103.78362361100768
16221,Opp Haw Par Villa Stn,1.28297585453544,103.78118424868649
16229,Haw Par Villa Stn,1.2830090731877,103.78159959377587
16231,Wholesale Ctr,1.28635947284714,103.77852933168337
16239,Opp Wholesale Ctr,1.28643527800393,103.77893444397212
16241,Bef West Coast Pk,1.28910305603308,103.77352611096799
16249,Bef Wholesale Ctr,1.28928277099215,103.77400682988979
16891,Opp Blk 420A,1.30982186660782,103.76816139829276
16991,Opp Nan Hua High Sch,1.30777929773028,103.76988582423061
17009,Clementi Int,1.31491572870629,103.76412225438476
17011,Opp Varsity Pk,1.29386900823232,103.76688187253777
17019,Varsity Pk,1.2937974792702,103.76705176995323
17021,Waseda S Snr High Sch,1.2962010369817,103.76684546473278
17029,Opp Waseda S Snr High Sch,1.29694570097768,103.76710295331488
17031,Kent Ridge Sec Sch,1.30172305827699,103.76567633935802
17039,Opp Kent Ridge Sec Sch,1.3015316464856,103.76606427132043
17041,Blk 726 Clementi West Mkt,1.3042101570614,103.76455953939507
17049,Blk 601,1.30470638200942,103.76459821893782
17051,Opp Regent Pk,1.31726409983754,103.76240145648879
17059,Regent Pk,1.31694333299923,103.76170111103328
17061,Blk 701,1.30775834752765,103.76180505768346
17069,Opp Blk 701,1.3077663717505,103.76214066046377
17071,Blk 513,1.30891781912545,103.76044433406533
17079,Blk 512,1.30968304242083,103.75999360222924
17081,Aft West Coast Highway,1.299503055534,103.76457888891022
17091,Aft Clementi Ave 1,1.30904805161426,103.77157783850733
17099,YALE-NUS COLLEGE,1.3078304704809,103.77165274445558
17101,Blk 352,1.31487473157856,103.77179195235537
17109,Opp Blk 352,1.31522970861959,103.77208794065152
17111,Blk 343,1.31779809827118,103.77124639148465
17119,Opp Blk 343,1.31774846480656,103.77161738463914
17121,Blk 610,1.30476410258543,103.76944539352431
17129,Aft NUS High Sch,1.30514136653386,103.76985839745124
17131,Clementi Flyover,1.3080413890204,103.76591111102081
17139,Aft Clementi Swim Cplx,1.30903304650021,103.7658699915105
17141,Clementi Stadium,1.3109950000148,103.76349999999258
17149,Blk 426,1.31171515103681,103.76346179699715
17151,Blk 410,1.31169519353522,103.76960993525367
17159,Blk 365,1.311975556,103.7698144
17161,Opp Blk 329,1.31240993603605,103.76685476875124
17169,Blk 329,1.31284527799656,103.76679666702314
17171,Clementi Stn,1.31497399268611,103.76502698264449
17179,Clementi Stn,1.31528191560846,103.76536000516927
17181,Opp Blk 317,1.31749570803723,103.7638854582427
17189,Blk 317,1.31790502165515,103.76406408827933
17191,NUS High Sch,1.305669444,103.7698914
17201,Blk 308,1.32055715133061,103.76734890374861
17211,Bet Blks 315/318,1.31828806129678,103.7658972301256
17219,Blk 376,1.31820000002277,103.76615861100824
17221,Blk 377,1.31735631283972,103.76790022594946
17229,Blk 335,1.31728402491862,103.76824211745355
17239,NTUC Fairprice,1.312440556,103.7658489
17241,Blk 334,1.31519114798349,103.76905503649127
17249,Blk 355,1.315171111,103.7693364
17251,Opp Blk 408,1.31148,103.76744
17259,Blk 408,1.31092798217655,103.76746074010758
17269,Blk 730,1.30513563161538,103.76274177899958
17279,Blk 723,1.30292494255611,103.76319287727786
17289,West Coast CC,1.30232494247638,103.7647147428673
17291,West Coast Pk,1.29035140506061,103.7696982607242
17299,Opp West Coast Pk,1.29060555603074,103.77005055601747
17301,Opp West Coast View,1.29495361097608,103.76516694401265
17309,West Coast View,1.29537083302023,103.7652455560114
17311,Emerson Process,1.30101698629873,103.76229444678326
17319,Blk 716,1.30183915639239,103.76229972130764
17321,Tien Wah Press Bldg,1.30483416696998,103.76035361097789
17329,Blk 705,1.30505055600585,103.76058388902574
17331,Opp Blk 518,1.30758833300768,103.75833111102287
17339,Blk 518,1.30785722199073,103.75850472198644
17351,Aft Clementi Rd,1.29358000003179,103.76576444402885
17359,Bef Clementi Rd,1.29333722200355,103.76621750002619
17361,Opp West Coast Link,1.29859750001329,103.76346250000067
17369,Aft West Coast Link,1.29840583296856,103.76386861099263
17371,Blk 201,1.32058194734278,103.76356592222618
17379,Blk 304,1.32049089180327,103.76389432891798
17381,West Bay Resort Condo,1.29907638900012,103.76686444402534
17389,Opp West Bay Resort Condo,1.29908138901268,103.76700194402241
17399,Opp Freesia Woods Condo,1.32394751696915,103.76724759997172
17409,Hse No. 90,1.32513458297883,103.76582910002257
17419,Sunset Way P/G,1.32618917574472,103.76590915525553
17429,Aft Sunset Vale,1.32990598614923,103.76714299050866
17439,LP 36,1.32990598614923,103.76714299050866
18011,SP Jain,1.28087089714667,103.8021033300325
18019,Opp SP Jain,1.28091055556275,103.80252305556165
18021,Opp GEMPLUS,1.29645297711413,103.7889243029247
18029,Tempco Mfg,1.29609811481527,103.78918045190079
18041,Normanton Pk,1.28836025261771,103.7931740283919
18049,Opp Normanton Pk,1.29018147748939,103.79208093037771
18051,One-North Stn,1.29863776004531,103.7873441662514
18059,Opp One-North Stn,1.29849138898115,103.78720666698497
18061,Blk 71,1.29671588928647,103.78738045694247
18069,Opp Blk 71,1.29649064143644,103.7875521182857
18071,NUH,1.29540809825612,103.7844750019296
18079,Opp NUH,1.2964817739742,103.78455389999202
18081,Blk 55,1.29478519265463,103.78733754155819
18089,S'pore Post,1.29480675923682,103.78757357729762
18099,Ayer Rajah Bus Pk,1.29393169432811,103.78953616896972
18101,PSB Science Pk Bldg,1.29282473128738,103.78636181453894
18109,Opp PSB Science Pk Bldg,1.29403436577434,103.78672599789039
18111,Fairfield Meth Pr Sch,1.30059305599352,103.78448416698873
18119,Opp Fairfield Meth Pr Sch,1.30004638896912,103.78466749999943
18121,Opp Ayer Rajah Ind Est,1.29751168042934,103.7854209482613
18129,Ayer Rajah Ind Est,1.29776225378985,103.78570767644749
18131,Science Pk,1.28950073498414,103.7918327963467
18141,Aft Anglo-Chinese JC,1.30418279677397,103.78788091438994
18149,Opp Anglo-Chinese JC,1.30253001117245,103.78724143833315
18151,Opp One-North Stn/Galaxis,1.30051083054497,103.78864286195989
18159,One-North Stn/Galaxis,1.3003468994065,103.78858368998314
18171,Bef Weyhill Cl,1.29905478616662,103.79412910351343
18179,Opp Weyhill Cl,1.29988107543841,103.79304547568137
18181,Opp Tanglin Trust Sch,1.29714585347396,103.79369361976173
18189,Tanglin Trust Sch,1.29839662957663,103.79390316193482
18191,Bef Whitchurch Rd,1.29445611099682,103.79594388899301
18199,Aft Whitchurch Rd,1.29544342826531,103.79407617440387
18201,Mediacorp Campus,1.29498098725808,103.7932287526945
18211,Infinite Studios,1.29161816867907,103.79522263706237
18221,NUH,1.29630305719228,103.78341318580553
18239,Opp NUH,1.29678943404486,103.78318782626637
18241,PSB Science Pk Annex,1.29092304543197,103.78707861052065
18249,Aft The Pasteur,1.29072399998624,103.78712700002762
18251,Opp Reuters,1.29068138903164,103.78845361097359
18261,Opp DSO Natl Laboratories,1.29015996757499,103.78933806183707
18269,Bef Reuters,1.29010333301913,103.78918694399599
18271,Blk 85,1.28840699998743,103.78992778459765
18279,Opp Blk 85,1.28840636755823,103.78976622482348
18281,The Rutherford,1.28752556916883,103.7912122154174
18289,Opp The Rutherford,1.28738105702672,103.7912059790003
18301,Lim Seng Tjoe Bldg (LT 27),1.29741138896949,103.78111972198647
18309,Blk S17,1.29752011664987,103.78134198615086
18311,Blk S12,1.29743814797617,103.77792133383952
18319,Opp University Hall,1.29752638901257,103.77813111102236
18321,Opp University Health Ctr,1.29879333297449,103.77561916702605
18329,University Health Ctr,1.2989244439988,103.77611416701255
18331,Kent Ridge Stn Exit A/NUH,1.2937072200211,103.78489139998855
18339,Opp Kent Ridge Stn Exit A,1.29379302903228,103.78507910002646
19011,Blk 19A CP,1.30781638901709,103.78423666696615
19019,Opp Blk 19A CP,1.30807305598128,103.78475916699466
19021,SP SMA,1.30965490194051,103.7812018067838
19029,Opp SP SMA,1.3095609201372,103.78201879388226
19031,Dover Stn,1.31123416666912,103.77838361113201
19039,Dover Stn,1.31167951129602,103.77868390552867
19041,Opp Sch Of Science & Tech,1.31235972197855,103.77552750001337
19049,Sch Of Science & Tech,1.31266302174215,103.77479215922537
19051,New Town Sec Sch,1.30896444398008,103.77392333299538
19059,University Town,1.30894500001531,103.7727225000061
19061,Ayer Rajah Telecoms,1.30752442673366,103.77782122462926
19069,Opp Ayer Rajah Telecoms,1.30778758326419,103.77671170466877
19071,Opp Acs Independent,1.30515500002931,103.78108305597279
19079,Bef Dover Ct Prep Sch,1.30610305600543,103.78012972199127
19081,Opp ACS Boarding Sch,1.30256972202724,103.78282472199413
19089,Acs Independent,1.30370305599194,103.78184388900041
19091,S'pore Poly,1.30739277801307,103.78208222199827
19099,Opp S'pore Poly,1.30695928303545,103.78193020817693
20011,Blk 506,1.31308624553797,103.76128731220228
20019,Blk 431,1.31357611099308,103.7615108330155
20021,NEWEST,1.31668904312349,103.7579229047191
20029,OPP NEWEST,1.31776998005658,103.7576126776852
20031,The Infiniti,1.32055987103977,103.75464677812963
20039,Opp The Infiniti,1.32102499760642,103.75471510655738
20051,Cycle & Carriage,1.32258708167298,103.74754428861822
20059,Opp Cycle & Carriage,1.32332108750232,103.74769351004639
20061,Aft Jurong Town Hall Rd,1.32380614051658,103.74298566424717
20069,Bef Jurong Town Hall Rd,1.32405636523113,103.74418793943124
20081,Carrier S'pore,1.32660472912447,103.73879228035435
20089,Opp Carrier S'pore,1.32702967705527,103.7392229529496
20101,Nan Hua Pr Sch,1.31993714188512,103.76221926730373
20109,Blk 203,1.32085220079341,103.76206999856427
20121,Opp Blk 51,1.32023972200054,103.73707999997312
20129,Bet Blks 50/51,1.32034555007728,103.73754105423453
20131,S'pore Food Industries Bldg,1.3155936163792,103.7518511517015
20139,Opp Angliss Bldg,1.31584166892255,103.75204376675156
20141,Opp Blk 408,1.31771999750607,103.7487710528033
20149,Blk 408,1.31795969674094,103.74897266925451
20151,Opp Blk 411,1.31829668687275,103.74631047251557
20159,Blk 411,1.31851137522994,103.74640166581365
20161,Opp Blks 34/35,1.31915476642967,103.74213695526599
20169,Blk 35,1.31928347830225,103.74251246450982
20171,Opp Blk 47,1.31967681449311,103.73984434693502
20179,Aft Teban Gdns Rd,1.32000211967899,103.73910069465363
20181,Ayer Rajah CC,1.32048478912567,103.74745845796298
20189,Opp Ayer Rajah CC,1.32030501410074,103.74727299945995
20191,Blk 407,1.31924166701026,103.74845638901051
20199,Blk 410,1.31908111097886,103.74819972197395
20201,Teban Gdn PO,1.32127611097845,103.74340527799251
20209,Bef Jurong Town Hall Rd,1.32043333301332,103.7440744439939
20211,Blk 41,1.32177193921987,103.74184000241928
20219,Opp Blk 41,1.32205689998871,103.74143326706027
20231,Bef Hasanah Mque,1.32234407286907,103.7394439595661
20239,Aft Hasanah Mque,1.32246879634748,103.73947011845992
20241,Opp Blk 51,1.32116277513743,103.73638362986378
20249,Blk 54,1.32162000001571,103.73670359829424
20251,Bef Teban Gdns Rd,1.31975500989852,103.74447102076279
20259,C'wealth Sec Sch,1.31962187605788,103.74477002532701
20261,Aft Pandan Gdns,1.3215997308483,103.74546423225033
20269,Bef Pandan Gdns,1.32151780618055,103.74580944947768
20271,Opp German Ctr,1.32527553308365,103.74550887325397
20281,Opp The Japanese Sec Sch,1.31234219524906,103.75484214400765
20289,The Japanese Sec Sch,1.31248801817062,103.75503415636196
20291,Tanglin Sec Sch,1.31095062259154,103.75771430804498
20299,Opp Tanglin Sec Sch,1.3109280417106,103.75857544044081
20309,Blk L Pandan Light Ind Pk,1.31062303116794,103.75403766163392
20319,Blk T Pandan Light Ind Pk,1.31259468493848,103.75284421307401
20329,S'pore Food Ind,1.31503304622752,103.75102066090028
20331,Vejoil Pte Ltd,1.31329138901596,103.74926333296754
20341,Pan Tech Ind Cplx,1.31186472196722,103.75047333297755
21011,Aft Jurong Lake,1.32534328766029,103.72866849877529
21019,Aft Yuan Ching Rd,1.32554867828642,103.72703317988619
21021,Bef Jurong Port Rd,1.32419322170223,103.72379008890384
21029,AFT CORP PL,1.32431513164759,103.72167144503253
21041,Aft Jln Terusan,1.3209197220107,103.72012027797446
21049,Bef Jln Terusan,1.32107250538852,103.72024520956326
21051,Bef Penjuru Rd,1.312256111,103.7304481
21059,Aft Penjuru Rd,1.311953889,103.7301381
21069,Bef Jln Tepong,1.31237305598007,103.7191852779968
21071,Jurong Abattoir,1.31394221438857,103.72226742161243
21079,Opp Jurong Abattoir,1.31342751032359,103.72279763377816
21089,Bef Jln Buroh,1.31206487520147,103.72296452520035
21099,Jurong Island Checkpt,1.31014377264327,103.71110346092364
21109,Ctrl Fish Proc Fty,1.31100299869144,103.72109770773132
21111,Aft Jurong Pier Rd,1.31442640542243,103.71238327744312
21119,Bef Jurong Pier Rd,1.31397291780129,103.71201936489673
21121,SPC Svc Stn,1.3145962153906,103.71483206750459
21129,Opp SPC Svc Stn,1.31421980722852,103.71482897871087
21131,Bef Jurong Port Rd,1.31470833302608,103.71799361097378
21139,Aft Jurong Port Rd,1.31433044660166,103.71846563037732
21141,Aft Jln Buroh,1.31517431113868,103.71957368500223
21149,Jurong Port Workshops,1.31564736437783,103.71987462044102
21151,CWT Distripark,1.3169920318205,103.71988944330612
21159,Sin Soon Huat,1.31868562417111,103.72042922086165
21161,Opp Jurong JC,1.35043949411648,103.7127413228723
21169,Jurong JC,1.35074356093462,103.71275812568066
21171,OPP CORP PL,1.3258163890121,103.71906611098208
21179,CORP PL,1.32586166697514,103.71929527796603
21181,Opp Blk 161,1.3302374752438,103.72100725398151
21189,Blk 161,1.33026046590704,103.72122294249655
21191,Jurong Stadium,1.33290982216515,103.72044541450344
21199,Opp Jurong Stadium,1.333309472028,103.72051292839538
21201,Sime Rengo Packaging Ltd,1.33683396424463,103.71778639139953
21209,Opp Sime Rengo Packaging Ltd,1.33687648564633,103.71805599895127
21211,Opp Lakepoint Condo,1.34004972199531,103.71606833298439
21219,Lakepoint Condo,1.34010356133429,103.71625930906035
21229,Opp S'Pore A'Space Mfg,1.34200346086893,103.71602021559848
21231,Blk 203,1.34359535075913,103.71599040338819
21239,Opp Blk 203,1.34450482589547,103.71633035405124
21241,Opp Blk 213,1.34973665190679,103.71235425312759
21249,Blk 213,1.34958421982025,103.71249318123603
21251,Sime Darby,1.33624121368399,103.71034741400833
21259,Opp Sime Darby,1.33604134949327,103.71043700168366
21261,AFT CHIN BEE AVE,1.33393514008105,103.71025085451481
21269,Bef Chin Bee Ave,1.33418183646412,103.71049761773749
21271,Opp Assyakirin Mque,1.33465896770641,103.71947315443572
21279,Assyakirin Mque,1.33491282590378,103.71952517818409
21291,Aft Jln Buroh,1.31585422996408,103.70943351671639
21299,Bef Jln Buroh,1.31587034933081,103.70994575591939
21301,Opp Jln Pesawat,1.31849721492889,103.70997054139839
21309,Aft Jln Pesawat,1.3191903081711,103.71054697877872
21311,Bef Tractor Rd,1.32320514106483,103.70956380845345
21319,Opp Tractor Rd,1.32377340235344,103.70980422080449
21321,UTOC ENGRG,1.32624055798556,103.70885429370763
21329,OPP UTOC ENGRG,1.32691548284142,103.70901792785014
21331,Opp Premier Milk Pte Ltd,1.33029049207675,103.70796785261548
21339,Premier Milk Pte Ltd,1.33042465634522,103.70832322685169
21341,Opp Beecham Pte Ltd,1.33517345758852,103.70895825573741
21349,Beecham Pte Ltd,1.33506459808859,103.70924473268514
21351,BEF BOON LAY WAY,1.33882138642125,103.70956429008974
21359,AFT ST KINETICS,1.33867010260834,103.7099597309989
21361,Blk 695,1.34302323304896,103.70767181671128
21369,Opp Blk 695,1.34309123717886,103.70800310705765
21371,Blk 680C,1.34522722613512,103.70617873626036
21379,Blk 263,1.34534855216089,103.70648912988919
21381,ST. JOSEPH'S HME,1.34961226988408,103.7085556805549
21389,OPP ST. JOSEPH'S HME,1.34948394210161,103.70901404485805
21391,River Valley High Sch,1.34485064221938,103.70847936082643
21399,Opp River Valley High Sch,1.3448140795943,103.70805985100185
21409,Blk 191,1.34338969264048,103.71207059648545
21411,Opp Blk 188,1.34393270141852,103.71033048575686
21419,Blk 188,1.34388060681347,103.71057645840757
21421,Blk 176,1.34720307776277,103.71032595632526
21429,Blk 185,1.34740203306581,103.71059149459593
21431,Blk 210,1.34765638897246,103.71241055602675
21439,Boon Lay CC,1.34842277796612,103.71165888901649
21441,Blk 207,1.34638242521451,103.71326229185901
21449,Boon Lay Shop Ctr,1.34639805597018,103.71306138901696
21451,Blk 206,1.34524833302487,103.71473000001441
21459,Blk 209,1.3455804550235,103.71491332975407
21461,BEF TUKANG INNOVATION DR,1.32731972199567,103.71799361099863
21469,Bef Chia Ping Rd,1.32747500002724,103.71808527797025
21471,AFT TUKANG INNOVATION DR,1.32673138898791,103.71542666702132
21479,Hup Leck Heavy Equipment,1.3269180560083,103.71570166699784
21481,GRUNDFOS,1.32600145997044,103.71208836146995
21489,OPP GRUNDFOS,1.32627839733404,103.71265433258445
21491,Bef Boon Lay Way,1.3268635454851,103.71082676692178
21499,Bef Jln Tukang,1.3265554895957,103.71102434826084
21501,Bef Meiji Seika,1.3304277146486,103.71000208357827
21509,Opp Meiji Seika,1.33115639068272,103.70998723220183
21511,Opp Amoy Canning,1.3331199693958,103.71107697488075
21519,Amoy Canning,1.33295908040191,103.71129155158583
21521,PB Packaging Systems,1.33413893275864,103.71458530428906
21529,Opp Grandluxe,1.3340830392462,103.71509707566638
21531,Clariant S'pore,1.33187576098508,103.71634483335832
21539,Opp Kaily Packaging,1.33136152392518,103.71633089417061
21541,Jurong Futsal Ctr,1.33138075779669,103.71986360869532
21549,Automotive Technology,1.33088280586201,103.71899585412747
21551,Blk 151,1.3266610431866,103.7209862100987
21559,CISCO Recall,1.326626598883,103.72063909698713
21561,Blk 158,1.32889315236799,103.72274321247575
21569,Opp Blk 158,1.32857203912272,103.72289813113439
21571,Opp Jurong Sec Sch,1.33056719470166,103.72307005592994
21579,Jurong Sec Sch,1.33013472279057,103.72318086110512
21581,Blk 65,1.33243350969467,103.72328639029729
21589,Opp Blk 65,1.33246568746472,103.72345805167676
21591,Opp Blk 117,1.33476103645994,103.72242808341083
21599,Blk 117,1.33468356164521,103.72268493639599
21601,Blk 357,1.33727029608815,103.72109770581518
21609,Opp Blk 364,1.33775166774993,103.72102625466782
21611,Blk 367,1.3383643422738,103.71931958855112
21619,AFT CORP RD,1.33793509893342,103.71816213921478
21621,Blk 354,1.3392149977089,103.72205929003123
21629,Blk 334,1.33954476976732,103.7227567243868
21631,Blk 115/Opp Japanese Gdn,1.33363626085559,103.72493610114242
21639,Japanese Gdn/Opp Blk 115,1.33378861099344,103.72511638897618
21641,Opp Lakeside Apt,1.3363012622323,103.7250086693193
21649,Lakeside Apt,1.33670886560508,103.72517977728532
21651,Opp Chinese Gdn,1.33873014874255,103.72402172321266
21659,Chinese Gdn,1.33896010542304,103.72410808486939
21661,Yuan Ching Sec Sch,1.34176560473259,103.72141430185464
21669,Opp Blk 134D,1.34134214489014,103.7220951930324
21671,Blk 331,1.33806500003375,103.72376166703002
21679,Blk 329,1.3377621978639,103.72358362464975
21681,Opp Blk 200,1.34228732259066,103.71466298692037
21689,Blk 200,1.34241984576482,103.71442338427325
21691,OPP SUMMERDALE,1.34107859811695,103.71138811111824
21699,SUMMERDALE,1.34154982082089,103.71203075013112
21711,Bet Blks 523/525,1.34699884210956,103.7157628162222
21719,Opp Blk 529,1.34779474567713,103.71507297402223
21751,Jurong Sec Sch,1.33089333300685,103.72480472198433
21759,Opp Jurong Sec Sch,1.33032387572414,103.7249113116863
21761,Blk 138B,1.32831333299986,103.72476805601295
21769,Opp Blk 138B,1.32847554099899,103.7249037836336
21771,AFT CORP DR,1.3265799244816,103.72373023682435
21779,Aft Yuan Ching Rd,1.32643572160288,103.72425774502393
22009,Boon Lay Int,1.33932334709184,103.70545701843297
22011,Jurong Bird Pk,1.32129797964322,103.7077550377112
22019,Opp Jurong Bird Pk,1.32202402246272,103.7071133033833
22021,Givaudan,1.32168245080395,103.70369314086494
22029,Opp Givaudan,1.32244971744256,103.70268212142697
22031,Bef Pioneer Circus,1.32216806047952,103.69855176773174
22039,Markono Holdings,1.32284076507861,103.69861624674222
22041,Aft Tg Kling Rd,1.31463499997457,103.69873083298778
22049,Bef Tg Kling Rd,1.3144663889863,103.69788888900642
22051,Opp Buroh St,1.31386916701697,103.7020447220124
22059,Aft Buroh St,1.3136061110111,103.70126249997799
22061,Ceva Logistics,1.31427617763344,103.70464097156747
22069,Opp Ceva Logistics,1.31365447950552,103.70379462205501
22071,Bef Jurong Pier Rd,1.31433636827053,103.70695129035255
22079,Aft Jurong Pier Rd,1.31394399203055,103.70804979014268
22081,Opp Natsteel,1.30599555710248,103.70037593299399
22089,Natsteel,1.30589277802592,103.70087805599307
22091,Aft Jln Samulun,1.30880721630907,103.6965558745042
22099,Bef Jln Samulun,1.30879764761052,103.69688960154522
22141,Aft Jln Buroh,1.3173330063793,103.6959517251446
22149,Bef Jln Buroh,1.3173196040118,103.69631182452453
22151,Hitachi,1.32095233702714,103.69627164313702
22159,Opp Hitachi,1.32095243330175,103.69663318172152
22161,Aft Lok Yang Way,1.32551656861142,103.69643109025226
22169,Aft Intl Rd,1.32624542877841,103.6966157738775
22171,Opp Secura S'pore,1.32954166703099,103.69637694399475
22179,Bef Secura,1.33000472340216,103.6966590690515
22181,S'pore Post,1.33301611112037,103.69637694442996
22189,Pioneer Junction,1.33369710730493,103.69666289847902
22191,Soon Lee Depot,1.33130584013018,103.69832754842358
22199,Opp Soon Lee Depot,1.33102248150132,103.69847431049809
22219,Aft Neythal Rd,1.32764556072381,103.70260743188996
22221,Aft Pioneer Rd Nth,1.32790916071437,103.69785686002558
22229,Bef Pioneer Rd Nth,1.32764334311,103.69887468380779
22231,Blk 639,1.34079486676221,103.69717899290252
22239,Blk 624,1.34081972201603,103.69742194398371
22241,Opp Blk 622,1.34012270744787,103.69938392223636
22249,Blk 622,1.34016007378301,103.69865436006683
22251,Blk 665A,1.34073333303053,103.70265666700926
22259,Blk 668D,1.34089136412278,103.7025463831608
22271,Bef Kwong Min Rd,1.32924582821916,103.7001114570651
22281,Aft Soon Lee Rd,1.32849264291843,103.70375258407391
22289,Bef Fan Yoong Rd,1.32926333300758,103.70284000001512
22299,Bef Soon Lee Rd,1.33068833434452,103.70177410483808
22309,Aft Fan Yoong Rd,1.33326999997395,103.7033808329889
22319,Bef Enterprise Rd,1.33198138900019,103.70545250001828
22329,Opp Sam Mccoy Engrg,1.33024346855102,103.70501590196446
22331,Jurong Shipyard,1.30485847664917,103.70317916961058
22341,Blk 673C,1.34491616105023,103.70103326346653
22349,Blk 734 CP,1.34520537289138,103.7007962851633
22351,Opp Blk 717,1.34277421893699,103.69803382884736
22359,Blk 717,1.3425266670299,103.69727527800597
22361,Blk 641,1.34077805602959,103.69587277801652
22369,Blk 704,1.34033186393306,103.69511038795854
22391,Bef Jln Buroh,1.31342749923518,103.6957230721563
22399,Aft Jln Buroh,1.31345707127095,103.69601603244551
22401,Aft Shipyard Rd,1.31007875279152,103.69714966993958
22409,Bef Shipyard Rd,1.31014256556667,103.69741989860339
22411,Blk 676B,1.34626796042608,103.70380100924208
22419,Jurong West Sub-Stn,1.34622597800485,103.70286134292765
22421,Natl Oxygen Pte Ltd,1.30775500000365,103.69872388898081
22429,Opp Natl Oxygen Pte Ltd,1.30725749703402,103.69908070609895
22431,Opp Four Leaves,1.33308242562379,103.70742208599415
22439,Aft Four Leaves,1.33311257526168,103.70680944659455
22441,Blk 669 CP,1.3426698715623,103.7036274900942
22449,Blk 685B,1.34276211470086,103.70380658858679
22451,Opp Blk 643,1.33817022625307,103.69561280580359
22459,Blk 643,1.33856290426228,103.69572041924057
22461,Opp Blk 653B,1.33596194443399,103.6962049999685
22469,Blk 653B,1.33649062479414,103.69631873743737
22471,Bef Jurong West St 93,1.33509047686273,103.6931453983202
22479,Aft Jurong West St 93,1.33474242487786,103.693102645977
22481,Blk 691A CP,1.3424622384747,103.70554089546958
22489,Blk 683A,1.34258460261,103.70536833792208
22491,Blk 662D,1.33721274298352,103.70478201670083
22499,Opp Blk 662C,1.33752755300605,103.70488157561539
22501,Blk 662A,1.33769199118033,103.70297133237953
22509,Blk 664C,1.33799405073941,103.70323491142737
22511,Blk 658C,1.33746181720219,103.70029665103546
22519,Blk 608,1.33773359608761,103.6999522210238
22521,Pioneer Stn Exit A,1.33741647896432,103.69776790191162
22529,Pioneer Stn Exit B,1.33777262767008,103.69728617102128
22531,Opp Jurong West Pr Sch,1.33922673310366,103.6981437537688
22539,Jurong West Pr Sch,1.33919523713654,103.69838678279567
22541,Blk 655,1.33496804809618,103.69761016575693
22549,Opp Blk 655 CP,1.33463563122766,103.69795361380136
22551,Blk 657,1.33498204269222,103.70065616150622
22559,Opp Blk 657 CP,1.33465462202129,103.70101403397047
22561,Blk 660,1.33497038465954,103.704144267721
22569,Opp Blk 660 CP,1.33464939590143,103.70458203446965
22571,Opp Boon Lay Stn,1.33780381373794,103.70689097976616
22591,Blk 670A,1.34425833334291,103.70329583335823
22599,Blk 678D,1.34484038298879,103.70308100001235
22609,Soon Lee Bus Pk,1.33048210252836,103.69830144019609
23011,Carrier Transicold Pte Ltd,1.32240518497889,103.69250829071932
23019,Nippon Paint,1.32302099996901,103.69256700002227
23021,Aft Benoi Sector,1.32243595181684,103.6851860612218
23029,Stamford Tyre,1.32302194442237,103.68622888892132
23031,Bef Benoi Flyover,1.32239543114794,103.68099108399514
23039,Aft Benoi Flyover,1.32303111111252,103.68151388887642
23041,Opp Jurong Camp,1.33334088691759,103.69055967203332
23049,Jurong Camp,1.33410764081742,103.69061140570352
23051,Bef Kian Teck Rd,1.33168972198862,103.68928138898715
23059,Aft Kian Teck Rd,1.33071284667323,103.68813759846915
23061,Aft Kian Teck Rd,1.329527778021,103.68652222202904
23069,Bef Kian Teck Rd,1.32989950511553,103.68582019131013
23071,Opp SAFTI Military Inst,1.32977056006705,103.68257796013837
23079,SAFTI Military Inst,1.33017908917854,103.68181544225693
23081,Opp S'pore Discovery Ctr,1.33011660553179,103.67826798978071
23089,S'pore Discovery Ctr,1.330433728881,103.67843466317231
23091,Nippon,1.32451861639004,103.69276227893867
23099,Bef First Lok Yang Rd,1.32467117178875,103.69286142759196
23101,Auto World Care,1.32453472201272,103.69091333299923
23109,Aft Third Lok Yang Rd,1.32468138902865,103.69068388898825
23111,Bef Fourth Lok Yang Rd,1.32454666699618,103.68836472199122
23119,Aft Fourth Lok Yang Rd,1.32467561470377,103.68847743952205
23121,Opp Leroy-Somer,1.32454951872062,103.68564634652004
23129,Leroy-Somer,1.32468096678984,103.68558762196439
23131,MES Logistic Hub,1.32537111100949,103.684046944028
23139,Bef Lok Yang Way,1.32517166702255,103.68414777801725
23141,Opp Varco,1.32666880692569,103.68401506144217
23149,Varco,1.32683034567488,103.68416474851742
23151,Containers Printers,1.32788229015066,103.68483459543562
23159,Aft Fifth Lok Yang Rd,1.32766374044406,103.68563350571777
23161,Aft Kian Teck Rd,1.3278839556405,103.68869472049072
23169,Bef Kian Teck Rd,1.32768833297607,103.68867638901021
23171,SKK (S) Pte Ltd,1.32789603640425,103.69118969248986
23179,Aft Second Lok Yang Rd,1.32767284372911,103.69102029335356
23181,Aft Kian Teck Rd,1.32790305599387,103.69448861100467
23189,Bef First Lok Yang Rd,1.32764459746447,103.69397532297509
23191,Opp S'pore Tpt Pte Ltd,1.31966145615591,103.68362765144359
23199,S'pore Tpt Pte Ltd,1.31951264524841,103.68312351699183
23201,Opp Shimano Pte Ltd,1.31964589958011,103.68628552653574
23209,Aft Shimano Pte Ltd,1.31950327084795,103.68577614249959
23211,Mapletree Logistics Hub,1.31792061914698,103.6892047185557
23219,Tru-Marine,1.31832727349422,103.68852528629336
23221,Aft Gul Way,1.30896659624814,103.67178095052478
23229,Opp Gul Way,1.30868757581216,103.67180644651505
23231,Keppel Logistics,1.30926499998419,103.67491833296833
23239,Opp Keppel Logistics,1.30916000001419,103.67513000000729
23241,Aft Benoi Rd,1.3102543597714,103.67981162071217
23249,Bef Benoi Rd,1.30990348653039,103.67948846644917
23251,Aft Shipyard Rd,1.3117223561773,103.68378143028161
23259,Bef Shipyard Rd,1.31139556205987,103.6836649596919
23261,Opp Exxon Mobil,1.31264863196713,103.68577338809426
23269,Exxon Mobil,1.312406285462,103.6857799047387
23279,Bef Benoi Sector,1.3149287594586,103.69162853660083
23281,Aft Pioneer Rd,1.30650617564734,103.6789673712784
23291,ST Marine,1.30382409549165,103.67930477414359
23301,Bef Benoi Basin,1.30212057066579,103.67953903241491
23311,Keppel Shipyard,1.30178638897679,103.67745555601714
23321,Bef Benoi Lane,1.30404333032775,103.67618479236954
23331,Opp JP Nelson,1.30689333299079,103.67584222201577
23341,Aft Pioneer Rd,1.31118496429579,103.67850804808974
23349,Bef Pioneer Rd,1.31076855055702,103.67871579430353
23351,Aft Gul Ave,1.31615485867639,103.67874941599844
23359,Opp Gul Ave,1.31500500807478,103.6788828370567
23361,Opp Keppel Logistics,1.31910770453777,103.6788383227952
23369,Keppel Logistics,1.31907826658404,103.67911023430729
23371,Bef Joo Koon Int,1.32595445317751,103.6790814673288
23379,Opp Joo Koon Int,1.3265431228454,103.67939439835483
23389,PEC Ltd,1.30755644701044,103.69377301234816
23399,Keppel Offshore & Marine,1.30533638898993,103.69237083299343
23409,Mobil Marine Ter,1.30352138897737,103.68933638897875
23419,Bef Shipyard Cres,1.30380777799126,103.6861461109867
23429,Opp EMAS Marine Base,1.30456833652112,103.68472051252805
23439,Opp SML Shipyard Ltd,1.30774277950908,103.68468656882482
23441,Opp Benoi Pl,1.31304186906391,103.67862695881058
23449,Benoi Pl,1.31284166701008,103.67877583300174
23451,Jurong Shipyard,1.30402666700212,103.6972844439932
23461,Tanoto Shipyard,1.30546916761511,103.69643466903611
23469,Opp Tanoto Shipyard,1.3050852014562,103.69683459275382
23471,Aft Benoi Rd,1.31966340928848,103.68097194774356
23479,Bef Benoi Rd,1.31950924526288,103.68065985334341
23481,Molex,1.32791691676156,103.68174669439477
23489,Opp Molex,1.32759688194654,103.68048864270644
23491,Joo Koon Stn Exit B,1.32792408366339,103.67780864699097
23499,Joo Koon Stn Exit A,1.32755092355685,103.67805103515069
23501,Aft Pioneer Rd Nth,1.32453160328451,103.6958354332658
23509,Hoe Keng Motor,1.32468013030892,103.69561678727867
23519,Opp FairPrice Hub,1.32479352408668,103.6793660000188
24009,Joo Koon Int,1.32697254709069,103.67839791240787
24011,M.C. Packaging Pte Ltd,1.32230923979842,103.6776263194759
24019,Liang Huat Ind Cplx,1.32288721900936,103.67728206793541
24021,Meritor Heavy Veh Systems,1.32185257239826,103.67087977752024
24029,Mazak S'pore,1.3224709639188,103.67132658072524
24041,Opp Pasir Laba Camp,1.33035313055333,103.67499316670492
24049,Pasir Laba Camp,1.33094144977498,103.67379074701834
24089,Aft Gul Ave,1.31445576142607,103.67069001700851
24129,Opp Yeow San Pte Ltd,1.32614180600676,103.66987144292962
24139,Opp Toyo Ink,1.32733592150747,103.67193012673827
24149,Aft Joo Koon Cres,1.32754011144327,103.67466321781171
24159,Aft Joo Koon Rd,1.3268422233348,103.67664244711858
24169,Bef Gul Circle,1.31038624703757,103.66671593002816
24179,Opp Hong Hock Hardware,1.30940312319597,103.66477126222463
24189,Tai Sin Electric Cables,1.31116229073472,103.6619380811675
24199,JB Ind Pte Ltd,1.31308152323838,103.65993666344218
24209,Aft Gul Lane,1.31523764085318,103.65986932009741
24219,Precision Products,1.31822701576325,103.66267154250265
24229,Aft Gul St 3,1.31953778109044,103.66615348821185
24239,Bef Gul St 1,1.31979166699662,103.6690038889689
24249,Asiatic Agricultural Ind,1.3200141711372,103.67231073811735
24259,DNV GL Laboratory,1.32022430366593,103.6756285744157
24269,Sing Huat Hardware,1.31796007151086,103.67660828077693
24279,Cameron Iron Works,1.31480277476233,103.6767463061916
24289,Opp Keppel T&T,1.31240457504935,103.674858525035
24299,Aft Gul Way,1.31215859373419,103.67165007095036
24301,SNL Logistics Pte Ltd,1.31260985884793,103.66584908540896
24331,Opp Hong Hang Bldg,1.30854833300657,103.66868333299611
24339,Hong Hang Bldg,1.30840666698801,103.66899333300486
24341,Opp Keppel Shipyard,1.29559624794118,103.67069575266142
24349,Keppel Shipyard,1.29557792043984,103.67091644467769
24351,Opp S'pore Takada Ind,1.29811763317717,103.6683905248493
24359,S'pore Takada Ind,1.29822556407932,103.66853349337183
24369,Dyna-Mac Engrg Svcs,1.30077687663858,103.66698326196405
24379,Opp Asia Ind Gases,1.30366277967429,103.66588434674222
24381,GE Keppel Energy Svcs,1.3068880559927,103.66532722200753
24389,Opp GE Keppel Energy Svcs,1.30668431065764,103.66551563876423
24391,Chem-Solv Technologies,1.29859319877639,103.66447101698635
24401,Opp Hoe Huat Engrg,1.30031638897466,103.66355777798681
24411,Gul Camp,1.30243777798816,103.66173361100701
24421,Bef Pioneer Sector 1,1.30463277796645,103.65950611101405
24431,Aft Pioneer Sector 2,1.30726611103183,103.6576999999841
24441,GSK,1.30713498253909,103.66096830094709
24451,Opp Cambridge Ind Trust,1.30599340060276,103.66378722029442
24461,Bef Nam Leong Co Pte Ltd,1.29723931495896,103.66626018526829
24489,Aft Joo Koon Way,1.32574395668742,103.67111058135133
24499,Panasonic Ind Devices,1.32598700998791,103.67439565139507
24501,Bef Tuas Flyover,1.32424896848956,103.66479791875364
24509,Aft Tuas Flyover,1.32431478516881,103.66411622471436
24511,GUL CIRCLE STN EXIT A,1.319446944,103.6608911
24519,GUL CIRCLE STN EXIT B,1.319071944,103.6598081
24521,Bef Tuas Ave 5,1.317440843177,103.65887836276522
24529,Aft Tuas Ave 5,1.31721248927948,103.65816649904158
24531,Utracon Corp,1.30622638897168,103.65688416696948
24539,Dundee Marine,1.30492020241064,103.65548029310382
24541,Opp Keppel Shipyard,1.30275657598845,103.6556555059217
24549,Keppel Shipyard,1.30273638896787,103.65543583300811
24559,HQ 6 Div,1.30079305601761,103.6574800000263
24571,Seng Heng Engrg,1.32367555849755,103.6690675022225
24581,Opp ESAB,1.3249613889807,103.666995833031
24599,Bef Joo Koon Way,1.32562284433654,103.66926644008088
24601,Progress Galvanizing,1.31333999996651,103.65486500001047
24609,Opp Progress Galvanizing,1.3134310373537,103.65475166394909
24611,Bef Marinteknik,1.31085562935941,103.65254056553094
24619,Opp Marinteknik,1.31113971951498,103.65260471956782
24621,Aft Ocean Tanker,1.30797138899535,103.64977944402521
24629,Opp Ocean Tanker,1.3085113890287,103.65015527797974
24631,Bef Benoi Rd,1.32056657586424,103.67824444522353
24639,Aft Benoi Rd,1.32041012800861,103.67791569301414
24641,W Atelier,1.31424000000651,103.66551388890647
24651,Metall-Treat Ind,1.31490027800406,103.66882611097928
24671,Hiap Teck Metal Co,1.30957805602715,103.66123000003104
24679,Opp Hiap Teck Metal Co,1.30929393064989,103.6612549652211
24681,Opp Jurong Insp Ctr,1.31200874931979,103.65863348470843
24689,Jurong Insp Ctr,1.31152436181276,103.65889588893424
24691,Aft Tuas Rd,1.31344500002083,103.65712805602769
24699,Bef Tuas Rd,1.31345305601187,103.65690250002406
24701,TUAS CRES STN EXIT B,1.321386,103.649116
24709,TUAS CRES STN EXIT A,1.32089,103.649026
24711,TUAS WEST RD STN EXIT B,1.329871,103.639994
24719,TUAS WEST RD STN EXIT A,1.330051,103.639332
25009,Tuas Ter,1.34499542766088,103.63920357507963
25061,Kyocera Chemical,1.32758500003063,103.64528750001706
25069,Opp Kyocera Chemical,1.32751179627799,103.64551802153501
25071,Opp Nissin Tpt,1.32958277801799,103.64320638902281
25079,Nissin Tpt,1.32944568983893,103.64347153803386
25091,Aft Tuas Ave 7,1.33443305603142,103.64520499998908
25099,Opto-Pharm,1.33392910725335,103.6449493341418
25101,Opp SMC Mfg,1.33428472907824,103.64783751324052
25109,SMC Mfg,1.33462333299665,103.64732250002415
25111,Aft Tuas Ave 10,1.33239888543698,103.64981610844488
25119,Bef Tuas Ave 10,1.33212638903277,103.64991694402983
25121,Aft Tuas Ave 8,1.33060763294167,103.65169663523501
25129,Aft Tuas Ave 6,1.32994444402601,103.65226388900422
25151,Mercedes-Benz Logistics,1.32913728132074,103.65325524319752
25161,Toyochem Ink,1.32735422944929,103.65510623174903
25169,Opp Galmon S'pore,1.32774944401039,103.65450055600219
25171,Becton Dickinson Med,1.32546645428693,103.65711196773577
25179,Sew-Eurodrive,1.32529138897633,103.65711333297114
25181,MAN Diesel,1.32385296919519,103.65881324089645
25189,Soon Heng Glass,1.32383972198116,103.65861666698133
25191,Asiatic Engrg,1.32129979633271,103.6596844024505
25199,Bestofire and Thermal,1.32109472197296,103.65933166702904
25201,Aft Tuas Rd,1.31926000001423,103.65870833303143
25209,Bef Tuas Rd,1.31930805600666,103.65880916700371
25219,Aft Tuas Ave 2,1.32877104016653,103.65692226679495
25221,Raffles Country Club,1.33470589408796,103.65153114279171
25229,Crown Beverage Cans S'pore,1.33371272924751,103.65176249706444
25231,Opp Asia-Pacific Brewery,1.3386589540233,103.64740272813636
25239,Asia-Pacific Brewery,1.33740500002037,103.64795499996725
25249,Aft Tuas West Rd,1.33985499996776,103.64535166698558
25259,Bef Tuas West Dr,1.34418817757747,103.6407070702331
25269,Tuas Checkpt,1.34777150726774,103.63746924027154
25321,YCH Distripark,1.31765021571604,103.6564457850944
25329,Mapletree Logistics,1.31779138900842,103.65646249999054
25331,Chugoku Marine Paints,1.32019777799085,103.6538130560161
25339,Asia Steel Welded Mesh,1.32018179763398,103.65396888287178
25341,ROCKWOOL,1.32194305599571,103.6519888889781
25349,Times Printers,1.32159222133434,103.65248184445197
25351,Hart Engrg Pte Ltd,1.32396971577017,103.65303152916469
25359,Opp Hart Engrg Pte Ltd,1.32365000001897,103.6529238890272
25361,Yan San Metals Pte Ltd,1.32495846442648,103.65112458286887
25369,Jas Metal Coatings,1.32513576890329,103.65147255685935
25371,Aft Tuas Ave 4,1.32387805603322,103.64917444402575
25379,Aft Tuas Ave 6,1.3242164088822,103.64900097889706
25381,WYN2000 Logistics Ctr,1.32556305598951,103.64739583301906
25389,Aft Tuas Ave 8,1.32595623010711,103.64720536104248
25391,Bef Pioneer Rd,1.32896999391116,103.63704332757345
25399,Aft Pioneer Rd,1.32923865523658,103.63794454078865
25411,BEF TUAS TER,1.34387062081224,103.63830559259954
25419,Aft Tuas Ter,1.3443890810874,103.63837611639327
25421,OPP TUAS LINK STN,1.3414665264837,103.63745040018382
25429,TUAS LINK STN,1.34055807307548,103.63696536000046
25431,Super Continental,1.33897644927954,103.63658739973077
25439,Opp Super Continental,1.33912525432561,103.63642647473378
25441,Bef Pioneer Rd,1.33483211759061,103.6351235369854
25449,Aft Pioneer Rd,1.33559254994067,103.63488564434365
25451,Aft Tuas West St,1.3322832999168,103.63410305264573
25459,Opp Tuas West St,1.33279999997118,103.63412166700834
25461,Aft Tuas West Ave,1.32944826490136,103.63291879027565
25469,Bef Tuas West Ave,1.32929472200012,103.63264583299014
25471,Opp S'pore Epson Ind,1.33552353410516,103.64184123007807
25479,S'pore Epson Ind,1.33552805597987,103.64162972197275
25491,Opp Super Continental,1.33901033639652,103.63816647849173
25499,Super Continental,1.33874972198024,103.63823777800012
25501,Kee Wee Hup Kee,1.33379055380717,103.6436358584241
25509,Opp Kee Wee Hup Kee,1.33355930464673,103.64364939022576
25511,MICHELMAN,1.32981500001918,103.64080472198735
25519,OPP MICHELMAN,1.32981451584967,103.6409965426425
25531,ST KINETICS,1.332349,103.645156
25539,FUJIFILM,1.332311,103.64507
25541,PEC,1.329782,103.647851
25549,CAST LABORATORIES,1.329815,103.647687
25551,GARMCO,1.325522,103.645927
25559,LEE WELDED MESH,1.325651,103.645879
25561,INVISTA,1.31836,103.637711
25569,OPP INVISTA,1.318191,103.637247
25571,OPP WEST STAR,1.315444,103.635242
25579,WEST STAR,1.315542,103.634947
25589,CROWN EQUIPMENT,1.328334,103.648426
25591,OPP WYETH PHARMACEUTICALS,1.310246,103.63509
25599,WYETH PHARMACEUTICALS,1.30943,103.635806
25601,PFIZER GLOBAL,1.301632,103.634717
25609,MERCK SHARP & DOHME,1.301942,103.634519
25611,OPP WESTLINK TWO,1.297703,103.633033
25621,STARBURST ENGRG,1.294382,103.631889
25631,CONTAINER CONNECTIONS,1.290329,103.631397
25641,OPP ROCHE S'PORE TECH,1.296157,103.638434
25651,NOVARTIS,1.299345,103.63553
25661,BEF TUAS BAY LINK,1.293361,103.639925
25669,AFT TUAS BAY LINK,1.293396,103.639523
25671,BEF OFFSHORE MARINE CTR,1.294546,103.641614
25681,BEF TUAS WEST AVE,1.332541,103.637033
25689,AFT TUAS WEST AVE,1.332109,103.637126
25691,AFT TUAS WEST RD STN,1.328519,103.639669
25701,GLAXOSMITHKLINE,1.295593,103.627651
25709,EDGEN MURRAY,1.295671,103.627284
25711,OPP THE INDEX,1.288627,103.625073
25719,THE INDEX,1.289014,103.624893
25729,ABBOTT,1.284932,103.628258
25741,HALLIBURTON,1.280501,103.62711
25751,BEF TUAS STH AVE 14,1.27637,103.621508
25761,OPP REC S'PORE,1.275062,103.624222
25771,AFT TUAS STH ST 7,1.274334,103.632329
25781,OPP SLS,1.276398,103.635811
25791,BEF TUAS STH AVE 10,1.28207,103.636168
25801,BEF TUAS STH AVE 7,1.28451,103.634186
25811,SIEM SENG HING,1.332261,103.643199
25819,OPP BEYONICS TECHNOLOGY,1.332495,103.64353
25821,TUAS AMENITY CTR,1.317492,103.652589
26011,Bef Tuas Ave 11,1.31922965607898,103.64876709883725
26019,PROGRESS GALVANIZING,1.318612,103.648062
26021,Bef Tuas Ave 13,1.3172613938167,103.64693086349153
26029,CHIA HOCK TRADING CO,1.317805,103.647257
26031,Hiap Seng Engrg Ltd,1.31548257210498,103.64524684749753
26039,ASIA POLYURETHANE,1.316062,103.645623
26041,HIAP SENG ENGRG LTD,1.314711,103.643052
26049,Damen Shipyard,1.31486576449382,103.64275148813714
26051,BLASTING ABRASIVES,1.316385,103.641295
26059,PAXOCEAN,1.31672777803073,103.64083888900358
26061,B S DEVELOPMENT,1.318186,103.639406
26069,Aft Tuas Ave 16,1.31850277800807,103.63897555599392
26071,UNIFINE STAR PETROCHEM,1.320508,103.637024
26079,Bef Tuas Loop,1.32060611102859,103.6367552779852
26081,BEF TUAS AVE 18A,1.322491,103.634908
26089,Bef Tuas Ave 20,1.32215171578031,103.63510021174817
26091,ROTARY ENGRG,1.324656,103.636135
26099,Bef Tuas Ave 13,1.32464249366642,103.63599686578979
26101,BASF STH EAST ASIA,1.326868,103.638144
26109,Bef Tuas Ave 11,1.32727742846476,103.63849052734983
26111,Tru-Marine,1.31464305600075,103.6542583329887
26121,Bef Tuas Amenity Ctr,1.31736840181558,103.65136419209274
26131,Aft Tuas Cres,1.31902277799591,103.64969999999403
26141,Smarty,1.32668624650782,103.6402558570377
26151,Opp Hempel,1.32452998769194,103.64252271521323
26161,3NC S'pore,1.32238325656852,103.6448005401494
26171,Richee Engrg,1.32013250000852,103.64712138903367
26201,Opp MSD,1.32695291537121,103.63192950215767
26209,MSD,1.32692000001177,103.63175333302223
26211,Framo S'pore Pte Ltd,1.2909661076742,103.6368386816709
26221,Opp YLS Steel,1.29324977797865,103.63700231055886
26241,Aft Tuas Sth Ave 2,1.32051139798651,103.63084994911132
26249,Bef Tuas Sth Ave 2,1.32047370757812,103.63121830364248
26251,Bef Tuas Sth Ave 2,1.31744784261205,103.62972683501111
26259,Aft Tuas Sth Ave 2,1.31751639387096,103.63011079068617
26261,Aft Tuas Sth Ave 4,1.31470906872568,103.62871219060811
26269,Bef Tuas Sth Ave 4,1.3143583329901,103.62895500001656
26279,Aft Tuas Sth Ave 4,1.31133425245546,103.6278418960082
26289,Opp Caterpillar,1.30854575415228,103.62682065616312
26299,Bef Tuas Sth Ave 6,1.30510954355111,103.62556346611815
26311,Aft Tuas Sth Ave 6,1.30228826515768,103.62978115947503
26321,Bef Tuas Sth St 2,1.30603953289231,103.63116893582946
26331,RS Components,1.30869957612651,103.63213426017337
26349,Tuas Technology Pk,1.3119396916744,103.62993851893346
26369,See Hup Seng,1.2984699944142,103.62308583345813
26379,Yong Nam,1.29387380677403,103.62192147229634
26389,Bef Tuas Sth Ave 5,1.29055080908937,103.62453377233186
26399,Aft Tuas View Cres,1.28949499042217,103.627460343254
26409,Multico,1.28912909258559,103.63019873280872
26419,Aft Tuas View Circuit,1.28891937327423,103.63301962123198
26429,Bef Tuas Sth Ave 9,1.28869749978137,103.63586909363458
26431,Aft Tuas Sth Ave 9,1.29448159014169,103.63619121489278
26441,Bef Tuas Sth Ave 7,1.29568927488087,103.63296571362545
26451,Bef Tuas Sth Ave 5,1.29689770170555,103.62977787735203
26461,Aft Tuas Sth Ave 8,1.29946472196917,103.62876777798095
27011,Blk 55,1.35586334559449,103.68610938870162
27021,Hall 15,1.35324138896679,103.68192916699402
27031,Hall 12,1.35186815681876,103.68051749839925
27041,CP 7,1.35071936245692,103.67864247139183
27051,NIE Lib,1.34845333297072,103.67665805600423
27061,Opp Blk 41,1.34984722128218,103.68387082088056
27069,Blk 41,1.35008972199881,103.68418444402793
27071,Nanyang Crescent Hall,1.35507533539502,103.68452767084537
27091,Opp Blk 271 CP,1.34910999998031,103.70388500000492
27099,Blk 271 CP,1.35023689448473,103.70360999821403
27101,Opp Westwood Sec Sch,1.35259472200365,103.70111638902962
27109,Westwood Sec Sch,1.35309472199852,103.70082305601869
27121,Bef Nanyang Ave,1.35682305601032,103.69521277798744
27129,Opp Nanyang Ave,1.35733217246828,103.69516041986128
27131,Blk 932,1.34193999997072,103.6885297219715
27139,Blk 934,1.34202746082141,103.68898154351334
27141,Blk 920,1.33967546710179,103.68779973857258
27149,Juying Pr Sch,1.33906525108364,103.68875795867145
27159,Blk 924,1.34033777802121,103.69005138898682
27169,Bef Jln Bahar,1.35693103245165,103.69424464254188
27171,Bef Lor Danau,1.35604565059158,103.6916825448322
27179,Aft Lor Danau,1.35618418171977,103.6917825773122
27181,PUB Sub-Stn,1.35587588807417,103.68903620638115
27189,Opp PUB Sub-Stn,1.35607204234326,103.68903921690323
27199,Hall 11,1.35434216792763,103.68685754938303
27209,Hall 8,1.35150701703353,103.68569234331088
27211,Lee Wee Nam Lib,1.34793140650697,103.68050066497821
27219,Blk 2,1.34793269501118,103.68025240016884
27221,Sch Of CEE,1.34623151653928,103.67851763727317
27231,Sch Of Comm And Info,1.34207972361937,103.67922271593845
27241,Hall 7,1.33998726585628,103.68089382456998
27251,Innovation Ctr,1.34228305598254,103.68371694398068
27261,Hall 4,1.34383372710626,103.6868651241412
27271,Blk 962,1.34199989028017,103.69132051378558
27279,Blk 953,1.34210239034142,103.69119289371211
27281,Hall 1,1.34565500002282,103.68780555602468
27291,Opp Hall 6,1.34772267411254,103.68649929145208
27301,Blk 978,1.34045284969365,103.69439784182157
27309,Blk 705,1.3410704693164,103.69426536144466
27311,Hall 2,1.34902211051484,103.68539285058924
27321,Blk 949,1.34403944399659,103.6917308330011
27329,Blk 840,1.34404250003243,103.69186499999779
27331,West Grove Pr Sch,1.34537305600812,103.69941138898014
27341,Blk 729,1.34663703411498,103.69778819793345
27349,Blk 745,1.34680805601666,103.69781805598312
27351,Blk 715,1.34423200986065,103.69613170622605
27359,Blk 817,1.34441434989381,103.69601368907118
27361,Blk 710,1.34294490356227,103.6945223808434
27369,Blk 834,1.34285373346865,103.6941039562493
27371,Opp Blk 755,1.34751384306624,103.700994411555
27379,Blk 755,1.34805042142493,103.70087385175057
27381,Blk 749,1.3481478303518,103.69863834523142
27389,Gek Poh Shop Ctr,1.34845180903204,103.69810437813979
27391,Blk 857,1.34842706557746,103.6963119899037
27399,Bet Blks 859/860,1.34866469760279,103.69640367719292
27401,Pioneer Sec Sch,1.34736600563095,103.6941379590552
27409,Blk 821,1.34719000000045,103.69416749997193
27411,Blk 844A CP,1.34590833297224,103.69273749998102
27419,Blk 827,1.34575472199235,103.6928200000021
27421,Blk 701,1.3428341669778,103.69536361096887
27429,Blk 711,1.34286500004293,103.69555805555355
27431,Blk 762,1.34946527300866,103.69734630614052
27439,Blk 861,1.34941077845235,103.6971171383191
27441,Bet Blks 757/758,1.35032868767666,103.70079327483805
27449,Aft Westwood Ave,1.35053242519874,103.70107895859192
27451,Bet Blks 272D/271A,1.35128613677034,103.7041505569119
27459,Blk 273B,1.35145070001383,103.70399035610369
27461,Opp Blk 276B,1.35293305775698,103.70512862147237
27469,Blk 276B,1.35307192192765,103.70486709831036
27471,Corporation Pr Sch,1.35216655807357,103.70782478135614
27479,Opp Corporation Pr Sch,1.3518923433776,103.70818261767401
27501,NTUC HEALTH NURSING HME,1.34096783594629,103.69167773326573
27509,Bef Yunnan Cres,1.34043647212319,103.69135819975955
27511,Blk 974,1.33925202251324,103.69310573763543
27519,Opp Blk 974,1.34004285535929,103.69292404819555
27521,Blk 986 CP,1.3368089664846,103.69406174421559
27529,Opp Blk 987A,1.33629804819426,103.69406295180332
27531,Blk 918,1.34052795177305,103.68697304819686
27539,BEF XINGNAN PR SCH,1.34071614464901,103.6868923374865
28009,Jurong East Temp Int,1.3334081875974,103.74154249246223
28011,BEF TOH TUCK AVE,1.32425805601593,103.7591472219987
28019,Aft Toh Tuck Ave,1.32492720506757,103.75894333173954
28021,OPP 8 @TRADEHUB 21,1.32615808379173,103.75545022241596
28029,8 @ TRADEHUB 21,1.32688998200812,103.75436027668461
28031,Bef The Synergy,1.32790100001681,103.75101499996688
28039,Aft Boon Lay Sub Stn,1.3280750000324,103.75140833297368
28041,The Synergy,1.33008349967851,103.74828366332322
28049,Opp The Synergy,1.33069921313648,103.7481034124348
28051,Big Box,1.33228999677029,103.74574002371804
28059,Ng Teng Fong General Hosp,1.33260638902834,103.74580722197156
28061,Jurong East Stn/Int,1.33596390763107,103.74254813709638
28069,Blk 203,1.33644240098532,103.74255737341373
28071,Blk 105,1.33765035288669,103.73904242961275
28079,Blk 210,1.33839906637569,103.7386009027093
28081,Blk 112,1.33950830792818,103.73664764665054
28089,Bef Yuhua CC,1.34016358625469,103.73634638831608
28091,Lakeside Stn,1.34425795644531,103.72012487725401
28099,Opp Lakeside Stn,1.34432009933148,103.71929832147642
28101,Opp SMRT Ulu Pandan Depot,1.33312436803086,103.75905617435505
28109,SMRT Ulu Pandan Depot,1.33327344230787,103.7593317971408
28111,Aft Bt Batok Rd,1.34782896282217,103.73585443658877
28119,Bef Bt Batok Rd,1.34785060542116,103.73605533760114
28121,Opp Track 18,1.35032065526174,103.73339597002595
28129,Aft Track 18,1.35031883853044,103.73374305465153
28131,Bef Jurong Lodge 1B,1.35278565732347,103.7305039062986
28139,Aft Track 22,1.35311302520987,103.73044252393824
28141,Aft Track 22,1.35399777798868,103.72857249997169
28149,Opp Jurong Lodge 1B,1.35405977108138,103.72912055580257
28151,Bef Hong Kah Circle,1.35582600662483,103.721474630709
28159,Aft Hong Kah Circle,1.35598754660164,103.72138451627544
28161,Bef Hong Kah Flyover,1.35600421192942,103.71927843716833
28169,Aft Hong Kah Flyover,1.35616202214588,103.71949603869263
28181,Bef Toh Tuck Link,1.32996642498284,103.75819801692671
28189,Aft Toh Tuck Link,1.32992124735954,103.75850603827898
28201,Opp The JTC Summit,1.33205706208933,103.7418504873348
28211,Opp Blk 135,1.33418677275445,103.74070680700304
28221,Opp Intl Business Pk,1.32761805004,103.74494173101616
28229,German Ctr,1.32536675242565,103.74593185918442
28231,Jurong Town Hall,1.32986201071411,103.74248183726264
28239,Opp Jurong Town Hall,1.32980442518564,103.74307145172916
28241,Opp Jurong East Lib,1.33175858461326,103.73957485927775
28249,Jurong East Lib,1.33212287290362,103.73979174224014
28251,S'pore Science Ctr,1.33382805600325,103.7369883329766
28259,Opp S'pore Science Ctr,1.33415472196842,103.73698833298555
28261,Aft S'pore Science Ctr,1.33614236992322,103.73489878344925
28269,Blk 118,1.33653242651923,103.73499280022457
28271,Opp Blk 114,1.33899259685337,103.73390575121081
28279,Blk 114,1.33948295480474,103.73423653369264
28281,Parc Oasis,1.3420603281321,103.73537548132207
28289,Blk 228,1.34238972202327,103.73598888901057
28291,Blk 303,1.34446090409168,103.73638303040048
28299,Blk 253,1.34438323067917,103.73667027224192
28301,Blk 131,1.33473899929823,103.74030301599491
28309,Intl Business Pk,1.32628627629778,103.74578490414557
28311,Blk 209,1.33825277511898,103.74108351905207
28319,Blk 207,1.33862623918679,103.74173313734524
28321,Blk 239,1.34127166427214,103.74090313908255
28329,Blk 246,1.3414709231345,103.74043571670437
28331,Blk 229,1.34204392869092,103.73804926872124
28339,Blk 252,1.34270510558579,103.73737517747826
28341,Chinese Gdn Stn,1.34247027799798,103.73271277802048
28349,Opp Chinese Gdn Stn,1.34255113741933,103.73318514055593
28351,Opp Blk 350,1.343615278018,103.73105583301476
28359,Blk 350,1.34388722199927,103.73119944403174
28361,Jurong Lake,1.34418881822068,103.72748780602458
28369,Opp Jurong Lake,1.34449722197147,103.72747138899737
28371,Bef Jurong West St 51,1.34487972199034,103.72409194399874
28379,Aft Jurong West St 51,1.34513639882838,103.72426131705271
28381,Blk 515,1.34626967118054,103.72129604136144
28389,Opp Blk 515,1.34646209983221,103.72147231551902
28391,Blk 501,1.34978093237085,103.71937165971983
28399,Blk 458,1.34974947213063,103.71964821094637
28401,Blk 502,1.3506545513673,103.71861401513462
28409,Blk 454,1.35081149361542,103.71793769087185
28411,Blk 526,1.34805444396931,103.7176175000189
28421,Blk 517,1.34591586108958,103.71934571086803
28431,Blk 134,1.33449626498358,103.73881557585635
28439,Blk 124,1.33451434015094,103.7385749816785
28441,Seventh-Day Advent Ch,1.33576638902918,103.73884916698127
28449,Bef Seventh-Day Advent Ch,1.33618166701348,103.73944500002973
28451,Parc Oasis,1.34394189080479,103.73465998158574
28459,Opp Parc Oasis,1.34440772894012,103.7343152870331
28461,Blk 347,1.345332402809,103.73205383657178
28469,Blk 316,1.34612717332075,103.73193313637753
28471,Opp Blk 311,1.34811145616559,103.73224640616968
28481,Blk 306,1.34618139069958,103.73421591577221
28491,Opp Jurong Polyclinic,1.34905596073619,103.7307863306416
28499,Jurong Polyclinic,1.34963044051902,103.73046199733298
28501,Blk 490,1.34980328426271,103.72737769835274
28509,Blk 422,1.35003470887569,103.72654009750788
28511,Blk 463,1.35063596491215,103.7237236090261
28519,Blk 425,1.35058416759245,103.72452492776075
28521,Blk 457,1.35097548065061,103.72120042369096
28529,Blk 441,1.35117921308914,103.7206511492765
28531,Blk 536,1.35006115514965,103.71652940446651
28539,Blk 538,1.34975477386966,103.71542393424821
28541,Blk 551,1.35235805602121,103.7172600000334
28551,Bef Penjuru Cl,1.35309201855261,103.71993998752167
28561,Blk 402,1.35318546958489,103.72232429359829
28571,Blk 416,1.35242067621829,103.72542293305399
28581,Blk 491,1.34925114010527,103.72570564902432
28591,Opp Blk 481,1.34645638903065,103.72538249998607
28601,Yuhua Sec Sch,1.34733744665393,103.72316770207861
28611,Opp Blk 461,1.34927792310102,103.72106773657399
28621,Blk 241,1.34154348249683,103.74358012428006
28629,Blk 266,1.34195331167525,103.74424995812674
28631,Opp Blk 288D,1.34053157728505,103.74418616293988
28639,Blk 288E,1.34045649755771,103.74395996871245
28641,Blk 284,1.33917889755759,103.74610320575732
28649,Blk 286A,1.33901303401774,103.74603439301079
28651,Opp IMM Bldg,1.33515192012369,103.74794188238828
28659,IMM Bldg,1.33446189256828,103.74767782537164
28661,Opp Jurong East Warehse,1.33665522766949,103.74951999566713
28669,Jurong East Warehse,1.33644500000269,103.74935500317244
28671,Alliance Bldg,1.33715229988486,103.75226376356609
28679,Hitachi Elevator Bldg,1.33661449274468,103.75110456918219
28681,Toh Guan Ctr,1.33720242588623,103.75488889772056
28689,Opp Toh Guan Ctr,1.33727934409499,103.75440999786483
28691,Wang-Fu Ind Pte Ltd,1.33565242851513,103.75748934005021
28699,Opp Uni-Tech Ctr,1.33566850623054,103.75723501585756
28701,Aft Old Toh Tuck Rd,1.33149833298375,103.75773000000456
28709,Bef Old Toh Tuck Rd,1.331639972025,103.75734406053928
29011,Opp Sanmina-SCI,1.3085474999723,103.73362194401842
29019,Sanmina-SCI,1.30808999973571,103.73376586792706
29021,Aft Jln Buroh,1.31267499889159,103.73450231627747
29029,Bef Penjuru Cl,1.3136694444723,103.73497081366901
29031,Aft Penjuru Pl,1.31653138767966,103.73538661201253
29039,Bef Penjuru Wk,1.31791472290937,103.73590151832454
29041,Ban Joo,1.30630499421009,103.73605370521642
29049,LTH Logistics,1.3059832127393,103.73668670651571
29051,Opp Caltex S'pore,1.30462052831604,103.74284927023315
29059,Caltex S'pore,1.3043728024167,103.74252500205836
29069,Aft Pandan Rd,1.30296947780325,103.74607238005542
29071,Gas Svc Intl,1.30422665161292,103.75179382878862
29081,Franklin Offshore,1.30177859797596,103.75284433363814
29089,Swanson Plastics,1.30146754204298,103.75270485878043
29091,Opp Sia Huat,1.29941886215176,103.75254392626566
29099,Bef Sia Huat,1.29938668393663,103.75207185742923
29101,PPL Shipyard,1.29856077859667,103.74997666563225
29109,Opp PPL Shipyard,1.29874917121117,103.74969618348408
29111,Transerve,1.30002583301409,103.74685194400729
29119,Comfortdelgro Engrg,1.30075962146214,103.74720096588953
29121,Opp Clp Intl,1.30670185792468,103.73955130573647
29129,Clp Intl,1.30639194302217,103.73949183679694
29139,Opp Foh Foh Pte Ltd,1.30295846509397,103.75137448307609
29149,Senkee Logistics Hub,1.30169278947484,103.7484455108314
29159,Aft Teban Gdns Cres,1.32532489846553,103.73750501985307
30011,Tengah Air Base,1.37367799480239,103.71422567942253
30019,Opp Tengah Air Base,1.37333306785344,103.71365844785454
30021,Opp Keat Hong Camp,1.3744419562273,103.71705234322658
30029,Keat Hong Camp,1.37415602765485,103.71709630730658
30031,Opp Army Logistics Base,1.37461935383489,103.71983865916742
30039,Army Logistics Base,1.37432162221947,103.71981883880738
30041,Opp Home Team Academy,1.37462014104762,103.72188815233464
30049,Home Team Academy,1.37431332163268,103.723836557791
30051,Aft Track 14,1.37455576936144,103.72537054756133
30059,Opp Track 14,1.37439935176831,103.72614304198139
30081,Opp Hai Inn See Tp,1.37727684686882,103.73431312110678
30089,Aft Hai Inn See Tp,1.377159999987,103.73409166698833
30091,Chengtai Nursery,1.37943055556701,103.7308563889232
30099,Opp Chengtai Nursery,1.37972159795466,103.73122812228895
31009,Choa Chu Kang Rd End,1.37174374490161,103.6842656135271
31011,Aft Nanyang Ave,1.35908460846532,103.69389522616177
31019,Bef Nanyang Ave,1.35998260495758,103.69398905356208
31021,Jln Bahar Power Stn,1.36247047014576,103.69287888535482
31029,Opp Jln Bahar Power Stn,1.36307987152083,103.69296604646463
31031,Civil Defence Academy,1.36598890667515,103.69327324255713
31039,Opp Civil Defence Academy,1.36563783980926,103.69330818055283
31041,Bef Muslim Cemy Path 7,1.36893226400594,103.6939293999916
31049,Aft Chr Cemy Path 9,1.36939554385137,103.6942436921991
31051,Bef Muslim Cemy Path 1,1.37226002154624,103.69445182104045
31059,Aft Chr Cemy Path 3,1.37207574401713,103.69466807265977
31061,Opp Lim Chu Kang Camp II,1.37594722202959,103.695570278013
31069,Bef Old Choa Chu Kang Rd,1.37493138896603,103.69550611102841
31071,Aft Chinese Cemy Path 11,1.37853314214565,103.69626045229732
31079,Opp Chinese Cemy Path 11,1.37768611102662,103.69632194402648
31081,Opp HQ 5th SIB Camp I,1.38056264189347,103.69732526991169
31089,HQ 5th SIB Camp I,1.37992729418245,103.69711516294915
31121,Opp Chinese Cemy,1.37035531879968,103.68800387696562
31129,Chinese Cemy,1.36997393445421,103.68740996007186
31131,Aft Track 33,1.3721005602879,103.6901494100538
31139,Bef Track 33,1.37211281474792,103.69038412231409
31141,Bahai Cemy,1.37409630689339,103.69342185827556
31149,Opp Bahai Cemy,1.37394854683347,103.69400832710886
31151,Aft Lim Chu Kang Rd,1.37363227377286,103.69596747862987
31159,Bef Lim Chu Kang Rd,1.37336600723318,103.69619726943306
31161,Opp Teen Challenge,1.37253332216297,103.70208763060677
31169,Teen Challenge,1.37245094201191,103.7012193702135
31171,Opp Jln Berseri,1.37240788349149,103.70418696765007
31179,Aft Jln Berseri,1.37234403223499,103.70355081890855
31191,B26 Old Choa Chu Kang Rd,1.37161444444711,103.70991083335727
31199,B25 Old Choa Chu Kang Rd,1.37097558139998,103.70931539839594
31201,Aft Chinese Cemy Path 13,1.38044981963514,103.69659409681319
31211,Aft Muslim Cemy Path 17,1.38283900023768,103.6969997018249
32031,Opp Ama Keng Rd,1.40270299424992,103.70078174769526
32039,Aft Ama Keng Rd,1.40251788786303,103.70081478116067
32041,Opp LP 160,1.40436104392726,103.70166157203701
32049,Aft LP 161,1.40452254375654,103.70187031633597
32051,Aft Track 11,1.40929365504034,103.70097942080086
32059,Opp Track 11,1.40903140804682,103.70120779053055
32061,Opp LP 173,1.41146307596912,103.70006004261607
32069,B26 Lim Chu Kang Rd,1.41103257931936,103.7003812106999
32071,Aft Track 13,1.4160246040166,103.70056776202736
32079,Opp Track 13,1.41512827700833,103.70026822968337
32081,Sg Gedong Camp,1.41744631606558,103.70120361125713
32089,Aft Sg Gedong Camp,1.41681891211204,103.7010851003633
32101,Aft Murai Farmway,1.38541382998394,103.69744470002844
32109,Bef Lor Serambi,1.3857176700282,103.69770270003046
32111,Aft LP 93,1.39837200000575,103.69964580001103
32119,Aft LP 96,1.39858000001944,103.699882699978
33011,B19 Lim Chu Kang Rd,1.41959108645842,103.70222963088568
33019,B20 Lim Chu Kang Rd,1.41920159190274,103.70215656491881
33021,Opp Neo Tiew Rd,1.42179012512071,103.70324459408172
33029,Aft Neo Tiew Rd,1.42080314827393,103.70292186217569
33031,Aft Jln Bahtera,1.42397958326967,103.70422572285418
33039,Opp Jln Bahtera,1.42329599233546,103.70408030420536
33041,Opp Lim Chu Kang Lane 3,1.42761911626678,103.70594344849181
33049,Aft Lim Chu Kang Lane 3,1.42621743469097,103.70543799603165
33051,Bef Lim Chu Kang Lane 3A,1.43024937289974,103.70683437257524
33059,Aft Lim Chu Kang Lane 3A,1.42935991121752,103.70662973279376
34009,Police Coast Guard,1.44482656088302,103.70756734461297
34011,Opp Lim Chu Kang Lane 4,1.43318199595331,103.7078231906078
34019,Aft Lim Chu Kang Lane 4,1.43253416698475,103.70773805599093
34021,Opp Lim Chu Kang Lane 5,1.43518649812518,103.70804760933633
34029,Bef Lim Chu Kang Lane 5,1.43497194397025,103.70818333298028
34031,Aft Lim Chu Kang Lane 6,1.4376660533385,103.70795650853267
34039,Bef Lim Chu Kang Lane 6,1.43659170251147,103.70811753153625
34041,B03 Lim Chu Kang Rd,1.43886508618445,103.70790669860943
34049,Aft Lim Chu Kang Lane 8,1.43837406233239,103.70802408979871
34051,Aft Lim Chu Kang Lane 8,1.4427555864767,103.70775406469974
34059,Yishun Dairy Farm,1.44234338763128,103.7078689605441
34101,Aft Old Lim Chu Kang Rd,1.38440683002823,103.69790380001842
34109,Aft Lim Chu Kang Rd,1.38430083002772,103.69811219997105
40011,LITTLE INDIA STN EXIT A,1.30606411522588,103.84908751469008
40019,Little India Stn,1.30664404460339,103.84920416709382
40021,BEF WINSTEDT RD,1.31103583296953,103.84281750001429
40029,Aft Makepeace Rd,1.31142305600915,103.84265999998345
40031,Newton FC,1.31205307720397,103.84029650342113
40039,Opp Newton FC,1.31230305602353,103.8407255559936
40041,Newton Stn Exit C,1.3137222313328,103.83809742560602
40049,Opp Newton Stn Exit C,1.31402305600959,103.83884638900086
40051,Balmoral Plaza,1.31652526011987,103.83570789921559
40059,Chancery Ct,1.31662138896806,103.83634361100417
40069,Anglo-Chinese Sch,1.31830398893217,103.83435129198834
40071,Leng Kwang Baptist Ch,1.31918027796911,103.829213610999
40079,Chinese Intl Sch,1.3197216415795,103.8299145659947
40081,Stevens Stn,1.32012951912406,103.82605259642706
40089,Opp Stevens Stn,1.3205163708353,103.82737957359956
40091,Bef Lewis Rd,1.32101807290903,103.82350944419166
40099,Aft Dunkirk Ave,1.32185235205471,103.82344007494515
40101,KK Women & Child Hosp,1.31036186651665,103.84779148902439
40109,Opp KK Women & Child Hosp,1.30949131269895,103.84770747833439
40111,City Twrs,1.31806499998598,103.83262555597635
40119,Bef Goldhill Ave,1.31889734253426,103.83249521257974
40121,Opp Newton Life Ch,1.31458164930261,103.84053190286843
40129,Newton Life Ch,1.31453779264106,103.84082845008946
40171,Opp Env Bldg,1.3109517198906,103.83582101192815
40179,Env Bldg,1.31133173990881,103.83686949960516
40181,Newton Stn Exit A,1.31243561231028,103.83798341278676
40189,Newton Stn Exit B,1.31223181292182,103.83816095637219
40191,Raffles Girls' Sch,1.31268555601325,103.8304269440197
40199,Opp Raffles Girls' Sch,1.31258333303153,103.83191222199584
40201,Chelsea Gdn Condo,1.31358972201496,103.82743055599407
40209,NOVOTEL MERCURE @ STEVENS,1.31388805600649,103.82738777802837
40211,Opp Met YMCA,1.31655331624558,103.825862990405
40219,Bef Met YMCA,1.31703698010115,103.82605954338264
40221,Opp Stevens Stn,1.31902531287493,103.82545561296305
40229,Aft Stevens Stn,1.31933337975163,103.82570109605929
40231,Raffles Town Club,1.32214806956461,103.82568817714628
40239,Aft Tanglin CC,1.32255443038995,103.82620193736967
40249,St. Joseph's Inst,1.3249247219882,103.82735055603025
40251,Aft Wallace Way,1.34054275997605,103.82231128179984
40259,Bef Wallace Way,1.34031250739109,103.82256277806692
40261,LP 52,1.34130384192273,103.82706642150467
40269,LP 57,1.34105638903249,103.82660805601813
40271,Opp KK Women & Child Hosp,1.30880664936794,103.8463464537845
40279,KK Women & Child Hosp,1.30981925741503,103.8460393043403
40301,Blk 451A,1.35332581027753,103.74287381027882
40309,Opp Blk 451A,1.35367643079374,103.74299081028306
